[
    {
        "street": "Main Road",
        "postcode": "SG19 3DL",
        "latitude": 52.1769776,
        "longitude": -0.1393226,
        "maps_url": "https://www.google.com/maps?q=52.1769776,-0.1393226",
        "w3w": "Rose Farmhouse, 40, Main Road, Little Gransden, South Cambridgeshire, Cambridgeshire, Cambridgeshire and Peterborough, England, SG19 3DL, United Kingdom"
    },
    {
        "street": "Dutton Gardens",
        "postcode": "SG19 3EF",
        "latitude": 52.1866919,
        "longitude": -0.1378325,
        "maps_url": "https://www.google.com/maps?q=52.1866919,-0.1378325",
        "w3w": "20, Dutton Gardens, Great Gransden, Huntingdonshire, Cambridgeshire, Cambridgeshire and Peterborough, England, SG19 3EF, United Kingdom"
    },
    {
        "street": "Caxton Road",
        "postcode": "SG19 3BH",
        "latitude": 52.1921571,
        "longitude": -0.1300555,
        "maps_url": "https://www.google.com/maps?q=52.1921571,-0.1300555",
        "w3w": "Tower Farm, Caxton Road, Hardwicke, Great Gransden, Huntingdonshire, Cambridgeshire, Cambridgeshire and Peterborough, England, SG19 3BH, United Kingdom"
    },
    {
        "street": "Dutton Gardens",
        "postcode": "SG19 3EF",
        "latitude": 52.1873147,
        "longitude": -0.1381562,
        "maps_url": "https://www.google.com/maps?q=52.1873147,-0.1381562",
        "w3w": "1, Dutton Gardens, Great Gransden, Huntingdonshire, Cambridgeshire, Cambridgeshire and Peterborough, England, SG19 3EF, United Kingdom"
    },
    {
        "street": "Middle Street",
        "postcode": "SG19 3AD",
        "latitude": 52.1854144,
        "longitude": -0.1434186,
        "maps_url": "https://www.google.com/maps?q=52.1854144,-0.1434186",
        "w3w": "3, Middle Street, Great Gransden, Sandy, Cambridgeshire, Cambridgeshire and Peterborough, England, SG19 3AD, United Kingdom"
    },
    {
        "street": "Webbs Meadow",
        "postcode": "SG19 3BL",
        "latitude": 52.1861392,
        "longitude": -0.1456374,
        "maps_url": "https://www.google.com/maps?q=52.1861392,-0.1456374",
        "w3w": "9, Webbs Meadow, Great Gransden, Sandy, Cambridgeshire, Cambridgeshire and Peterborough, England, SG19 3BL, United Kingdom"
    },
    {
        "street": "Main Road",
        "postcode": "SG19 3DN",
        "latitude": 52.1730395,
        "longitude": -0.1387261,
        "maps_url": "https://www.google.com/maps?q=52.1730395,-0.1387261",
        "w3w": "Brook Farm Cottage, 2, Main Road, Little Gransden, South Cambridgeshire, Cambridgeshire, Cambridgeshire and Peterborough, England, SG19 3DN, United Kingdom"
    },
    {
        "street": "White Horse Close",
        "postcode": "SG14 2FJ",
        "latitude": 51.7914636,
        "longitude": -0.1068057,
        "maps_url": "https://www.google.com/maps?q=51.7914636,-0.1068057",
        "w3w": "2, White Horse Close, Hertford, Hertingfordbury, East Hertfordshire, Hertfordshire, England, SG14 2FJ, United Kingdom"
    },
    {
        "street": "Windmill Close",
        "postcode": "SG19 3QD",
        "latitude": 52.1823124,
        "longitude": -0.1343715,
        "maps_url": "https://www.google.com/maps?q=52.1823124,-0.1343715",
        "w3w": "1, Windmill Close, Little Gransden, South Cambridgeshire, Cambridgeshire, Cambridgeshire and Peterborough, England, SG19 3QD, United Kingdom"
    },
    {
        "street": "High Street",
        "postcode": "SG14 3ST",
        "latitude": 51.8610068,
        "longitude": -0.1183405,
        "maps_url": "https://www.google.com/maps?q=51.8610068,-0.1183405",
        "w3w": "High Street, Watton-at-Stone, East Hertfordshire, Hertfordshire, England, SG14 3ST, United Kingdom"
    },
    {
        "street": "Greenfields",
        "postcode": "PE19 6TN",
        "latitude": 52.2200388,
        "longitude": -0.1377295,
        "maps_url": "https://www.google.com/maps?q=52.2200388,-0.1377295",
        "w3w": "13, Greenfields, Eltisley, St Neots, Cambridgeshire, Cambridgeshire and Peterborough, England, PE19 6TN, United Kingdom"
    },
    {
        "street": "Minchenden Crescent",
        "postcode": "N14 7EN",
        "latitude": 51.6237812,
        "longitude": -0.1274316,
        "maps_url": "https://www.google.com/maps?q=51.6237812,-0.1274316",
        "w3w": "50, Minchenden Crescent, New Southgate, London Borough of Enfield, London, Greater London, England, N14 7EN, United Kingdom"
    },
    {
        "street": "Tudor Way",
        "postcode": "SG14 2EG",
        "latitude": 51.799883,
        "longitude": -0.1021601,
        "maps_url": "https://www.google.com/maps?q=51.799883,-0.1021601",
        "w3w": "Wallace House Branch Surgery, 127, Tudor Way, Sele Farm, Hertford, Hertingfordbury, East Hertfordshire, Hertfordshire, England, SG14 2EG, United Kingdom"
    },
    {
        "street": "Dutton Gardens",
        "postcode": "SG19 3EF",
        "latitude": 52.1869898,
        "longitude": -0.1380791,
        "maps_url": "https://www.google.com/maps?q=52.1869898,-0.1380791",
        "w3w": "9, Dutton Gardens, Great Gransden, Huntingdonshire, Cambridgeshire, Cambridgeshire and Peterborough, England, SG19 3EF, United Kingdom"
    },
    {
        "street": "Queens Avenue",
        "postcode": "N10 3PE",
        "latitude": 51.5916701,
        "longitude": -0.1464585,
        "maps_url": "https://www.google.com/maps?q=51.5916701,-0.1464585",
        "w3w": "37, Queens Avenue, Fortis Green, Muswell Hill, London Borough of Haringey, London, Greater London, England, N10 3PE, United Kingdom"
    },
    {
        "street": "Main Road",
        "postcode": "SG19 3DW",
        "latitude": 52.1813482,
        "longitude": -0.1420399,
        "maps_url": "https://www.google.com/maps?q=52.1813482,-0.1420399",
        "w3w": "82, Main Road, Little Gransden, South Cambridgeshire, Cambridgeshire, Cambridgeshire and Peterborough, England, SG19 3DW, United Kingdom"
    },
    {
        "street": "Caxton Road",
        "postcode": "SG19 3AW",
        "latitude": 52.1884405,
        "longitude": -0.1406556,
        "maps_url": "https://www.google.com/maps?q=52.1884405,-0.1406556",
        "w3w": "27, Caxton Road, Great Gransden, Sandy, Cambridgeshire, Cambridgeshire and Peterborough, England, SG19 3AW, United Kingdom"
    },
    {
        "street": "West Street",
        "postcode": "SG19 3AU",
        "latitude": 52.1881305,
        "longitude": -0.1442248,
        "maps_url": "https://www.google.com/maps?q=52.1881305,-0.1442248",
        "w3w": "Manor Cottage, 46, West Street, Great Gransden, Sandy, Cambridgeshire, Cambridgeshire and Peterborough, England, SG19 3AU, United Kingdom"
    },
    {
        "street": "Manor Lane",
        "postcode": "SG19 3RA",
        "latitude": 52.1869381,
        "longitude": -0.1466126,
        "maps_url": "https://www.google.com/maps?q=52.1869381,-0.1466126",
        "w3w": "The Manor House, 10, Manor Lane, Great Gransden, Sandy, Cambridgeshire, Cambridgeshire and Peterborough, England, SG19 3RA, United Kingdom"
    },
    {
        "street": "Primrose Hill",
        "postcode": "SG19 3DP",
        "latitude": 52.1820039,
        "longitude": -0.1367525,
        "maps_url": "https://www.google.com/maps?q=52.1820039,-0.1367525",
        "w3w": "22a, Primrose Hill, Little Gransden, South Cambridgeshire, Cambridgeshire, Cambridgeshire and Peterborough, England, SG19 3DP, United Kingdom"
    },
    {
        "street": "The Green",
        "postcode": "PE19 6TQ",
        "latitude": 52.2212329,
        "longitude": -0.1436005,
        "maps_url": "https://www.google.com/maps?q=52.2212329,-0.1436005",
        "w3w": "Mill House, 60, The Green, Eltisley, St Neots, Cambridgeshire, Cambridgeshire and Peterborough, England, PE19 6TQ, United Kingdom"
    },
    {
        "street": "Primrose Hill",
        "postcode": "SG19 3DP",
        "latitude": 52.1819028,
        "longitude": -0.1370897,
        "maps_url": "https://www.google.com/maps?q=52.1819028,-0.1370897",
        "w3w": "20, Primrose Hill, Little Gransden, South Cambridgeshire, Cambridgeshire, Cambridgeshire and Peterborough, England, SG19 3DP, United Kingdom"
    },
    {
        "street": "Poplar Grove",
        "postcode": "N11 3PE",
        "latitude": 51.6094947,
        "longitude": -0.1476167,
        "maps_url": "https://www.google.com/maps?q=51.6094947,-0.1476167",
        "w3w": "99,101, Poplar Grove, Colney Hatch, London Borough of Barnet, London, Greater London, England, N11 3PE, United Kingdom"
    },
    {
        "street": "Sand Road",
        "postcode": "SG19 3AQ",
        "latitude": 52.1867177,
        "longitude": -0.1400416,
        "maps_url": "https://www.google.com/maps?q=52.1867177,-0.1400416",
        "w3w": "11, Sand Road, Great Gransden, Sandy, Cambridgeshire, Cambridgeshire and Peterborough, England, SG19 3AQ, United Kingdom"
    },
    {
        "street": "St Mary's Lane",
        "postcode": "SG14 2LF",
        "latitude": 51.7877648,
        "longitude": -0.1025399,
        "maps_url": "https://www.google.com/maps?q=51.7877648,-0.1025399",
        "w3w": "The Warren, St Mary's Lane, Horn's Mill, Hertford, Hertingfordbury, East Hertfordshire, Hertfordshire, England, SG14 2LF, United Kingdom"
    },
    {
        "street": "The Meadow",
        "postcode": "SG14 3SF",
        "latitude": 51.8563632,
        "longitude": -0.1114448,
        "maps_url": "https://www.google.com/maps?q=51.8563632,-0.1114448",
        "w3w": "Nigel Poulton Community Hall, School Lane, Watton-at-Stone, East Hertfordshire, Hertfordshire, England, SG14 3SF, United Kingdom"
    },
    {
        "street": "Hertingfordbury Road",
        "postcode": "SG14 2LB",
        "latitude": 51.7928205,
        "longitude": -0.1063009,
        "maps_url": "https://www.google.com/maps?q=51.7928205,-0.1063009",
        "w3w": "229, Hertingfordbury Road, Sele Farm, Hertford, Hertingfordbury, East Hertfordshire, Hertfordshire, England, SG14 2LB, United Kingdom"
    },
    {
        "street": "Mill Road",
        "postcode": "SG19 3AG",
        "latitude": 52.1845446,
        "longitude": -0.1384115,
        "maps_url": "https://www.google.com/maps?q=52.1845446,-0.1384115",
        "w3w": "26, Mill Road, Great Gransden, Sandy, Cambridgeshire, Cambridgeshire and Peterborough, England, SG19 3AG, United Kingdom"
    },
    {
        "street": "Dutton Gardens",
        "postcode": "SG19 3EF",
        "latitude": 52.18651,
        "longitude": -0.1375013,
        "maps_url": "https://www.google.com/maps?q=52.18651,-0.1375013",
        "w3w": "34, Dutton Gardens, Great Gransden, Huntingdonshire, Cambridgeshire, Cambridgeshire and Peterborough, England, SG19 3EF, United Kingdom"
    },
    {
        "street": "The Green",
        "postcode": "PE19 6TG",
        "latitude": 52.2199726,
        "longitude": -0.1402723,
        "maps_url": "https://www.google.com/maps?q=52.2199726,-0.1402723",
        "w3w": "47, The Green, Eltisley, St Neots, Cambridgeshire, Cambridgeshire and Peterborough, England, PE19 6TG, United Kingdom"
    },
    {
        "street": "Caxton Road",
        "postcode": "SG19 3AW",
        "latitude": 52.1885525,
        "longitude": -0.1405802,
        "maps_url": "https://www.google.com/maps?q=52.1885525,-0.1405802",
        "w3w": "31, Caxton Road, Great Gransden, Sandy, Cambridgeshire, Cambridgeshire and Peterborough, England, SG19 3AW, United Kingdom"
    },
    {
        "street": "Sand Road",
        "postcode": "SG19 3AH",
        "latitude": 52.1882258,
        "longitude": -0.1370757,
        "maps_url": "https://www.google.com/maps?q=52.1882258,-0.1370757",
        "w3w": "D. C. Norris & Co, Sand Road, Great Gransden, Huntingdonshire, Cambridgeshire, Cambridgeshire and Peterborough, England, SG19 3AH, United Kingdom"
    },
    {
        "street": "East Street",
        "postcode": "SG19 3AB",
        "latitude": 52.1861378,
        "longitude": -0.1413044,
        "maps_url": "https://www.google.com/maps?q=52.1861378,-0.1413044",
        "w3w": "The Whispers, 18, East Street, Great Gransden, Sandy, Cambridgeshire, Cambridgeshire and Peterborough, England, SG19 3AB, United Kingdom"
    },
    {
        "street": "The Courtyard",
        "postcode": "SG14 2SD",
        "latitude": 51.7933375,
        "longitude": -0.1063548,
        "maps_url": "https://www.google.com/maps?q=51.7933375,-0.1063548",
        "w3w": "The Courtyard, Hertingfordbury Road, Sele Farm, Hertford, Hertingfordbury, East Hertfordshire, Hertfordshire, England, SG14 2SD, United Kingdom"
    },
    {
        "street": "Audley Close",
        "postcode": "SG19 3RJ",
        "latitude": 52.1883284,
        "longitude": -0.139706,
        "maps_url": "https://www.google.com/maps?q=52.1883284,-0.139706",
        "w3w": "4, Audley Close, Great Gransden, Sandy, Cambridgeshire, Cambridgeshire and Peterborough, England, SG19 3RJ, United Kingdom"
    },
    {
        "street": "Potton End",
        "postcode": "PE19 6TT",
        "latitude": 52.2166914,
        "longitude": -0.1432641,
        "maps_url": "https://www.google.com/maps?q=52.2166914,-0.1432641",
        "w3w": "Potton End, Eltisley, South Cambridgeshire, Cambridgeshire, Cambridgeshire and Peterborough, England, PE19 6TH, United Kingdom"
    },
    {
        "street": "Fuller's Hill",
        "postcode": "SG19 3BP",
        "latitude": 52.1637529,
        "longitude": -0.1484294,
        "maps_url": "https://www.google.com/maps?q=52.1637529,-0.1484294",
        "w3w": "Fuller's Hill Farmhouse, Fuller's Hill, Little Gransden, South Cambridgeshire, Cambridgeshire, Cambridgeshire and Peterborough, England, SG19 3BP, United Kingdom"
    },
    {
        "street": "Fuller's Hill",
        "postcode": "SG19 3BP",
        "latitude": 52.1648617,
        "longitude": -0.1475562,
        "maps_url": "https://www.google.com/maps?q=52.1648617,-0.1475562",
        "w3w": "Ash Tree Cottage, Fuller's Hill, Little Gransden, South Cambridgeshire, Cambridgeshire, Cambridgeshire and Peterborough, England, SG19 3BP, United Kingdom"
    },
    {
        "street": "Caxton End",
        "postcode": "PE19 6TJ",
        "latitude": 52.2187451,
        "longitude": -0.1360189,
        "maps_url": "https://www.google.com/maps?q=52.2187451,-0.1360189",
        "w3w": "64, Caxton End, Eltisley, St Neots, Cambridgeshire, Cambridgeshire and Peterborough, England, PE19 6TJ, United Kingdom"
    },
    {
        "street": "Dutton Gardens",
        "postcode": "SG19 3EF",
        "latitude": 52.1871466,
        "longitude": -0.1385307,
        "maps_url": "https://www.google.com/maps?q=52.1871466,-0.1385307",
        "w3w": "5, Dutton Gardens, Great Gransden, Huntingdonshire, Cambridgeshire, Cambridgeshire and Peterborough, England, SG19 3EF, United Kingdom"
    },
    {
        "street": "Winchfield",
        "postcode": "SG19 3AN",
        "latitude": 52.1882665,
        "longitude": -0.1416533,
        "maps_url": "https://www.google.com/maps?q=52.1882665,-0.1416533",
        "w3w": "42, Winchfield, Great Gransden, Sandy, Cambridgeshire, Cambridgeshire and Peterborough, England, SG19 3AN, United Kingdom"
    },
    {
        "street": "The Green",
        "postcode": "PE19 6TG",
        "latitude": 52.2214538,
        "longitude": -0.1421526,
        "maps_url": "https://www.google.com/maps?q=52.2214538,-0.1421526",
        "w3w": "36, The Green, Eltisley, St Neots, Cambridgeshire, Cambridgeshire and Peterborough, England, PE19 6TG, United Kingdom"
    },
    {
        "street": "Mill Road",
        "postcode": "SG19 3AG",
        "latitude": 52.1853755,
        "longitude": -0.1399268,
        "maps_url": "https://www.google.com/maps?q=52.1853755,-0.1399268",
        "w3w": "14, Mill Road, Great Gransden, Sandy, Cambridgeshire, Cambridgeshire and Peterborough, England, SG19 3AG, United Kingdom"
    },
    {
        "street": "Main Road",
        "postcode": "SG19 3DN",
        "latitude": 52.174679,
        "longitude": -0.1389507,
        "maps_url": "https://www.google.com/maps?q=52.174679,-0.1389507",
        "w3w": "Brook Cottage, 10, Main Road, Little Gransden, South Cambridgeshire, Cambridgeshire, Cambridgeshire and Peterborough, England, SG19 3DN, United Kingdom"
    },
    {
        "street": "Caxton End",
        "postcode": "PE19 6TJ",
        "latitude": 52.2165322,
        "longitude": -0.1323201,
        "maps_url": "https://www.google.com/maps?q=52.2165322,-0.1323201",
        "w3w": "101, Caxton End, Jesus College Farm, Eltisley, St Neots, Cambridgeshire, Cambridgeshire and Peterborough, England, PE19 6TJ, United Kingdom"
    },
    {
        "street": "Baker's Court",
        "postcode": "SG19 3PF",
        "latitude": 52.1868759,
        "longitude": -0.1429097,
        "maps_url": "https://www.google.com/maps?q=52.1868759,-0.1429097",
        "w3w": "4, Baker's Court, Great Gransden, Sandy, Cambridgeshire, Cambridgeshire and Peterborough, England, SG19 3PF, United Kingdom"
    },
    {
        "street": "Greenfields",
        "postcode": "PE19 6TN",
        "latitude": 52.2197435,
        "longitude": -0.1370514,
        "maps_url": "https://www.google.com/maps?q=52.2197435,-0.1370514",
        "w3w": "6, Greenfields, Eltisley, St Neots, Cambridgeshire, Cambridgeshire and Peterborough, England, PE19 6TN, United Kingdom"
    },
    {
        "street": "Eltisley Road",
        "postcode": "SG19 3AR",
        "latitude": 52.1895674,
        "longitude": -0.1427746,
        "maps_url": "https://www.google.com/maps?q=52.1895674,-0.1427746",
        "w3w": "22, Eltisley Road, Great Gransden, Sandy, Cambridgeshire, Cambridgeshire and Peterborough, England, SG19 3AR, United Kingdom"
    },
    {
        "street": "Webbs Meadow",
        "postcode": "SG19 3BL",
        "latitude": 52.186388,
        "longitude": -0.1453593,
        "maps_url": "https://www.google.com/maps?q=52.186388,-0.1453593",
        "w3w": "2, Webbs Meadow, Great Gransden, Sandy, Cambridgeshire, Cambridgeshire and Peterborough, England, SG19 3BL, United Kingdom"
    },
    {
        "street": "Crow Tree Street",
        "postcode": "SG19 3AZ",
        "latitude": 52.1854994,
        "longitude": -0.145574,
        "maps_url": "https://www.google.com/maps?q=52.1854994,-0.145574",
        "w3w": "The Granary, 9, Crow Tree Street, Great Gransden, Sandy, Cambridgeshire, Cambridgeshire and Peterborough, England, SG19 3AZ, United Kingdom"
    },
    {
        "street": "Caxton End",
        "postcode": "PE19 6TL",
        "latitude": 52.2190236,
        "longitude": -0.138577,
        "maps_url": "https://www.google.com/maps?q=52.2190236,-0.138577",
        "w3w": "Newton Primary School, Caxton End, Eltisley, St Neots, Cambridgeshire, Cambridgeshire and Peterborough, England, PE19 6TL, United Kingdom"
    },
    {
        "street": "St Mary's Lane",
        "postcode": "SG14 2LF",
        "latitude": 51.7875927,
        "longitude": -0.1030656,
        "maps_url": "https://www.google.com/maps?q=51.7875927,-0.1030656",
        "w3w": "The Pightle, St Mary's Lane, Horn's Mill, Hertford, Hertingfordbury, East Hertfordshire, Hertfordshire, England, SG14 2LF, United Kingdom"
    },
    {
        "street": "Mill Road",
        "postcode": "SG19 3AG",
        "latitude": 52.1855168,
        "longitude": -0.1402574,
        "maps_url": "https://www.google.com/maps?q=52.1855168,-0.1402574",
        "w3w": "The Maltings, 12, Mill Road, Great Gransden, Sandy, Cambridgeshire, Cambridgeshire and Peterborough, England, SG19 3AG, United Kingdom"
    },
    {
        "street": "Primrose Hill",
        "postcode": "SG19 3DP",
        "latitude": 52.1824303,
        "longitude": -0.1366424,
        "maps_url": "https://www.google.com/maps?q=52.1824303,-0.1366424",
        "w3w": "31, Primrose Hill, Little Gransden, South Cambridgeshire, Cambridgeshire, Cambridgeshire and Peterborough, England, SG19 3DP, United Kingdom"
    },
    {
        "street": "The Green",
        "postcode": "PE19 6TQ",
        "latitude": 52.2210952,
        "longitude": -0.1431873,
        "maps_url": "https://www.google.com/maps?q=52.2210952,-0.1431873",
        "w3w": "54, The Green, Eltisley, St Neots, Cambridgeshire, Cambridgeshire and Peterborough, England, PE19 6TQ, United Kingdom"
    },
    {
        "street": "Edwards Mews",
        "postcode": "N1 1SG",
        "latitude": 51.543418,
        "longitude": -0.105224,
        "maps_url": "https://www.google.com/maps?q=51.543418,-0.105224",
        "w3w": "33, Edwards Mews, Canonbury, Highbury, London Borough of Islington, London, Greater London, England, N1 1SG, United Kingdom"
    },
    {
        "street": "Caxton End",
        "postcode": "PE19 6TJ",
        "latitude": 52.2190307,
        "longitude": -0.1358374,
        "maps_url": "https://www.google.com/maps?q=52.2190307,-0.1358374",
        "w3w": "35, Caxton End, Eltisley, St Neots, Cambridgeshire, Cambridgeshire and Peterborough, England, PE19 6TJ, United Kingdom"
    },
    {
        "street": "The Green",
        "postcode": "PE19 6TG",
        "latitude": 52.2200352,
        "longitude": -0.1405695,
        "maps_url": "https://www.google.com/maps?q=52.2200352,-0.1405695",
        "w3w": "49, The Green, Eltisley, St Neots, Cambridgeshire, Cambridgeshire and Peterborough, England, PE19 6TG, United Kingdom"
    },
    {
        "street": "Dutton Gardens",
        "postcode": "SG19 3EF",
        "latitude": 52.186957,
        "longitude": -0.1389485,
        "maps_url": "https://www.google.com/maps?q=52.186957,-0.1389485",
        "w3w": "2, Dutton Gardens, Great Gransden, Huntingdonshire, Cambridgeshire, Cambridgeshire and Peterborough, England, SG19 3EF, United Kingdom"
    },
    {
        "street": "Audley Close",
        "postcode": "SG19 3RL",
        "latitude": 52.187589,
        "longitude": -0.139889,
        "maps_url": "https://www.google.com/maps?q=52.187589,-0.139889",
        "w3w": "43, Audley Close, Great Gransden, Sandy, Cambridgeshire, Cambridgeshire and Peterborough, England, SG19 3RL, United Kingdom"
    },
    {
        "street": "Primrose Hill",
        "postcode": "SG19 3DP",
        "latitude": 52.1826001,
        "longitude": -0.135731,
        "maps_url": "https://www.google.com/maps?q=52.1826001,-0.135731",
        "w3w": "43, Primrose Hill, Little Gransden, South Cambridgeshire, Cambridgeshire, Cambridgeshire and Peterborough, England, SG19 3DP, United Kingdom"
    },
    {
        "street": "Webbs Meadow",
        "postcode": "SG19 3BL",
        "latitude": 52.1861211,
        "longitude": -0.1454764,
        "maps_url": "https://www.google.com/maps?q=52.1861211,-0.1454764",
        "w3w": "8, Webbs Meadow, Great Gransden, Sandy, Cambridgeshire, Cambridgeshire and Peterborough, England, SG19 3BL, United Kingdom"
    },
    {
        "street": "Panshanger",
        "postcode": "SG14 2NA",
        "latitude": 51.7963016,
        "longitude": -0.1252571,
        "maps_url": "https://www.google.com/maps?q=51.7963016,-0.1252571",
        "w3w": "Riverside Cottage, A414, Staines Green, Hertingfordbury, Birch Green, East Hertfordshire, Hertfordshire, England, SG14 2NA, United Kingdom"
    },
    {
        "street": "Morton Way",
        "postcode": "N14 7AL",
        "latitude": 51.6210095,
        "longitude": -0.1334345,
        "maps_url": "https://www.google.com/maps?q=51.6210095,-0.1334345",
        "w3w": "136, Morton Way, New Southgate, London Borough of Enfield, London, Greater London, England, N14 7AL, United Kingdom"
    },
    {
        "street": "Primrose Hill",
        "postcode": "SG19 3DP",
        "latitude": 52.1822055,
        "longitude": -0.1373754,
        "maps_url": "https://www.google.com/maps?q=52.1822055,-0.1373754",
        "w3w": "19, Primrose Hill, Little Gransden, South Cambridgeshire, Cambridgeshire, Cambridgeshire and Peterborough, England, SG19 3DP, United Kingdom"
    },
    {
        "street": "Kiver Road",
        "postcode": "N19 4PE",
        "latitude": 51.5633294,
        "longitude": -0.1250017,
        "maps_url": "https://www.google.com/maps?q=51.5633294,-0.1250017",
        "w3w": "15, Kiver Road, Holloway, London Borough of Islington, London, Greater London, England, N19 4PE, United Kingdom"
    },
    {
        "street": "Morton Way",
        "postcode": "N14 7AL",
        "latitude": 51.6217364,
        "longitude": -0.1349834,
        "maps_url": "https://www.google.com/maps?q=51.6217364,-0.1349834",
        "w3w": "164, Morton Way, New Southgate, London Borough of Enfield, London, Greater London, England, N14 7AL, United Kingdom"
    },
    {
        "street": "Meadow Road",
        "postcode": "SG19 3BD",
        "latitude": 52.1858592,
        "longitude": -0.1473073,
        "maps_url": "https://www.google.com/maps?q=52.1858592,-0.1473073",
        "w3w": "7, Meadow Road, Great Gransden, Sandy, Cambridgeshire, Cambridgeshire and Peterborough, England, SG19 3BD, United Kingdom"
    },
    {
        "street": "Primrose Hill",
        "postcode": "SG19 3DP",
        "latitude": 52.1821448,
        "longitude": -0.1376497,
        "maps_url": "https://www.google.com/maps?q=52.1821448,-0.1376497",
        "w3w": "15, Primrose Hill, Little Gransden, South Cambridgeshire, Cambridgeshire, Cambridgeshire and Peterborough, England, SG19 3DP, United Kingdom"
    },
    {
        "street": "Caxton End",
        "postcode": "PE19 6TL",
        "latitude": 52.2195785,
        "longitude": -0.1393165,
        "maps_url": "https://www.google.com/maps?q=52.2195785,-0.1393165",
        "w3w": "12, Caxton End, Eltisley, St Neots, Cambridgeshire, Cambridgeshire and Peterborough, England, PE19 6TL, United Kingdom"
    },
    {
        "street": "Church Street",
        "postcode": "SG19 3AF",
        "latitude": 52.1856819,
        "longitude": -0.1405323,
        "maps_url": "https://www.google.com/maps?q=52.1856819,-0.1405323",
        "w3w": "48a, Church Street, Great Gransden, Sandy, Cambridgeshire, Cambridgeshire and Peterborough, England, SG19 3AF, United Kingdom"
    },
    {
        "street": "Meadow Road",
        "postcode": "SG19 3BD",
        "latitude": 52.1864937,
        "longitude": -0.1475065,
        "maps_url": "https://www.google.com/maps?q=52.1864937,-0.1475065",
        "w3w": "Ladies Hill House, 14, Meadow Road, Great Gransden, Sandy, Cambridgeshire, Cambridgeshire and Peterborough, England, SG19 3BD, United Kingdom"
    },
    {
        "street": "Mandene Gardens",
        "postcode": "SG19 3AP",
        "latitude": 52.1855688,
        "longitude": -0.1380088,
        "maps_url": "https://www.google.com/maps?q=52.1855688,-0.1380088",
        "w3w": "29, Mandene Gardens, Great Gransden, Sandy, Cambridgeshire, Cambridgeshire and Peterborough, England, SG19 3AP, United Kingdom"
    },
    {
        "street": "Crow Tree Street",
        "postcode": "SG19 3AZ",
        "latitude": 52.1853895,
        "longitude": -0.1459364,
        "maps_url": "https://www.google.com/maps?q=52.1853895,-0.1459364",
        "w3w": "Dancers Cottage, 8, Crow Tree Street, Great Gransden, Sandy, Cambridgeshire, Cambridgeshire and Peterborough, England, SG19 3AZ, United Kingdom"
    },
    {
        "street": "Crown Lane",
        "postcode": "N14 5EN",
        "latitude": 51.6320571,
        "longitude": -0.1285789,
        "maps_url": "https://www.google.com/maps?q=51.6320571,-0.1285789",
        "w3w": "Kozzy Breakfast Bar, 90, Crown Lane, Southgate, London Borough of Enfield, London, Greater London, England, N14 5EN, United Kingdom"
    },
    {
        "street": "Meadow View",
        "postcode": "PE19 6TP",
        "latitude": 52.2195357,
        "longitude": -0.140577,
        "maps_url": "https://www.google.com/maps?q=52.2195357,-0.140577",
        "w3w": "1, Meadow View, Eltisley, St Neots, Cambridgeshire, Cambridgeshire and Peterborough, England, PE19 6TP, United Kingdom"
    },
    {
        "street": "Middle Street",
        "postcode": "SG19 3AD",
        "latitude": 52.186284,
        "longitude": -0.1424698,
        "maps_url": "https://www.google.com/maps?q=52.186284,-0.1424698",
        "w3w": "26, Middle Street, Great Gransden, Sandy, Cambridgeshire, Cambridgeshire and Peterborough, England, SG19 3AD, United Kingdom"
    },
    {
        "street": "The Green",
        "postcode": "PE19 6TG",
        "latitude": 52.2201478,
        "longitude": -0.1408213,
        "maps_url": "https://www.google.com/maps?q=52.2201478,-0.1408213",
        "w3w": "51, The Green, Eltisley, St Neots, Cambridgeshire, Cambridgeshire and Peterborough, England, PE19 6TG, United Kingdom"
    },
    {
        "street": "George Crescent",
        "postcode": "N10 1AL",
        "latitude": 51.6049438,
        "longitude": -0.1497292,
        "maps_url": "https://www.google.com/maps?q=51.6049438,-0.1497292",
        "w3w": "1, George Crescent, Colney Hatch, London Borough of Barnet, London, Greater London, England, N10 1AL, United Kingdom"
    },
    {
        "street": "Lavender Barns",
        "postcode": "SG19 3RD",
        "latitude": 52.1873832,
        "longitude": -0.1412531,
        "maps_url": "https://www.google.com/maps?q=52.1873832,-0.1412531",
        "w3w": "4, Caxton Road, Great Gransden, Sandy, Cambridgeshire, Cambridgeshire and Peterborough, England, SG19 3RD, United Kingdom"
    },
    {
        "street": "Williams Close",
        "postcode": "SG19 3QS",
        "latitude": 52.1870947,
        "longitude": -0.1400059,
        "maps_url": "https://www.google.com/maps?q=52.1870947,-0.1400059",
        "w3w": "2, Williams Close, Great Gransden, Sandy, Cambridgeshire, Cambridgeshire and Peterborough, England, SG19 3QS, United Kingdom"
    },
    {
        "street": "Edwards Mews",
        "postcode": "N1 1SG",
        "latitude": 51.5434288,
        "longitude": -0.1051518,
        "maps_url": "https://www.google.com/maps?q=51.5434288,-0.1051518",
        "w3w": "32, Edwards Mews, Canonbury, Highbury, London Borough of Islington, London, Greater London, England, N1 1SG, United Kingdom"
    },
    {
        "street": "Hertingfordbury Road",
        "postcode": "SG14 2LG",
        "latitude": 51.7908779,
        "longitude": -0.1079637,
        "maps_url": "https://www.google.com/maps?q=51.7908779,-0.1079637",
        "w3w": "Baynard Hill, Hertingfordbury Road, Sele Farm, Hertingfordbury, East Hertfordshire, Hertfordshire, England, SG14 2LG, United Kingdom"
    },
    {
        "street": "Hertingfordbury Road",
        "postcode": "SG14 2LG",
        "latitude": 51.7903588,
        "longitude": -0.1111764,
        "maps_url": "https://www.google.com/maps?q=51.7903588,-0.1111764",
        "w3w": "Mayflower Place, Hertingfordbury Road, Sele Farm, Hertingfordbury, East Hertfordshire, Hertfordshire, England, SG14 2LG, United Kingdom"
    },
    {
        "street": "Audley Close",
        "postcode": "SG19 3RJ",
        "latitude": 52.1877269,
        "longitude": -0.1408594,
        "maps_url": "https://www.google.com/maps?q=52.1877269,-0.1408594",
        "w3w": "18, Audley Close, Great Gransden, Sandy, Cambridgeshire, Cambridgeshire and Peterborough, England, SG19 3RJ, United Kingdom"
    },
    {
        "street": "West Street",
        "postcode": "SG19 3AU",
        "latitude": 52.1871867,
        "longitude": -0.1450429,
        "maps_url": "https://www.google.com/maps?q=52.1871867,-0.1450429",
        "w3w": "28, West Street, Great Gransden, Sandy, Cambridgeshire, Cambridgeshire and Peterborough, England, SG19 3AU, United Kingdom"
    },
    {
        "street": "Main Road",
        "postcode": "SG19 3DL",
        "latitude": 52.1782271,
        "longitude": -0.1396189,
        "maps_url": "https://www.google.com/maps?q=52.1782271,-0.1396189",
        "w3w": "The Old Dairy, 52, Main Road, Little Gransden, South Cambridgeshire, Cambridgeshire, Cambridgeshire and Peterborough, England, SG19 3DL, United Kingdom"
    },
    {
        "street": "Sand Road",
        "postcode": "SG19 3AQ",
        "latitude": 52.186454,
        "longitude": -0.1404785,
        "maps_url": "https://www.google.com/maps?q=52.186454,-0.1404785",
        "w3w": "3, Sand Road, Great Gransden, Sandy, Cambridgeshire, Cambridgeshire and Peterborough, England, SG19 3AQ, United Kingdom"
    },
    {
        "street": "The Green",
        "postcode": "PE19 6TG",
        "latitude": 52.2203589,
        "longitude": -0.141372,
        "maps_url": "https://www.google.com/maps?q=52.2203589,-0.141372",
        "w3w": "59, The Green, Eltisley, St Neots, Cambridgeshire, Cambridgeshire and Peterborough, England, PE19 6TG, United Kingdom"
    },
    {
        "street": "Ashfield Road",
        "postcode": "N14 7PE",
        "latitude": 51.6268402,
        "longitude": -0.1335238,
        "maps_url": "https://www.google.com/maps?q=51.6268402,-0.1335238",
        "w3w": "Alloa Court, 139, Ashfield Road, Brunswick Park, London Borough of Barnet, London, Greater London, England, N14 7PE, United Kingdom"
    },
    {
        "street": "Main Road",
        "postcode": "SG19 3DL",
        "latitude": 52.1790107,
        "longitude": -0.1398973,
        "maps_url": "https://www.google.com/maps?q=52.1790107,-0.1398973",
        "w3w": "The Old Dairy, 58, Main Road, Little Gransden, South Cambridgeshire, Cambridgeshire, Cambridgeshire and Peterborough, England, SG19 3DL, United Kingdom"
    },
    {
        "street": "Fox Street",
        "postcode": "SG19 3AA",
        "latitude": 52.1880975,
        "longitude": -0.1436985,
        "maps_url": "https://www.google.com/maps?q=52.1880975,-0.1436985",
        "w3w": "6-8, Fox Street, Great Gransden, Sandy, Cambridgeshire, Cambridgeshire and Peterborough, England, SG19 3AA, United Kingdom"
    },
    {
        "street": "Ashendene Road",
        "postcode": "SG13 8PX",
        "latitude": 51.7586278,
        "longitude": -0.1055368,
        "maps_url": "https://www.google.com/maps?q=51.7586278,-0.1055368",
        "w3w": "Bayford Church of England Voluntary Controlled Primary School, Ashendene Road, Bayford, Brickendon, East Hertfordshire, Hertfordshire, England, SG13 8PX, United Kingdom"
    },
    {
        "street": "Webbs Meadow",
        "postcode": "SG19 3BL",
        "latitude": 52.1865657,
        "longitude": -0.1450795,
        "maps_url": "https://www.google.com/maps?q=52.1865657,-0.1450795",
        "w3w": "3, Webbs Meadow, Great Gransden, Sandy, Cambridgeshire, Cambridgeshire and Peterborough, England, SG19 3BL, United Kingdom"
    },
    {
        "street": "Hertingfordbury Road",
        "postcode": "SG14 2LG",
        "latitude": 51.7906511,
        "longitude": -0.1086682,
        "maps_url": "https://www.google.com/maps?q=51.7906511,-0.1086682",
        "w3w": "260, Hertingfordbury Road, Sele Farm, Hertingfordbury, East Hertfordshire, Hertfordshire, England, SG14 2LG, United Kingdom"
    },
    {
        "street": "Primrose Hill",
        "postcode": "SG19 3DP",
        "latitude": 52.1821555,
        "longitude": -0.1358746,
        "maps_url": "https://www.google.com/maps?q=52.1821555,-0.1358746",
        "w3w": "30, Primrose Hill, Little Gransden, South Cambridgeshire, Cambridgeshire, Cambridgeshire and Peterborough, England, SG19 3DP, United Kingdom"
    },
    {
        "street": "Middle Street",
        "postcode": "SG19 3AD",
        "latitude": 52.1852118,
        "longitude": -0.1431163,
        "maps_url": "https://www.google.com/maps?q=52.1852118,-0.1431163",
        "w3w": "4-6, Middle Street, Great Gransden, Sandy, Cambridgeshire, Cambridgeshire and Peterborough, England, SG19 3AD, United Kingdom"
    },
    {
        "street": "Caxton End",
        "postcode": "PE19 6TJ",
        "latitude": 52.2181508,
        "longitude": -0.1349536,
        "maps_url": "https://www.google.com/maps?q=52.2181508,-0.1349536",
        "w3w": "84, Caxton End, Eltisley, St Neots, Cambridgeshire, Cambridgeshire and Peterborough, England, PE19 6TJ, United Kingdom"
    },
    {
        "street": "The Green",
        "postcode": "PE19 6TQ",
        "latitude": 52.2211294,
        "longitude": -0.1429789,
        "maps_url": "https://www.google.com/maps?q=52.2211294,-0.1429789",
        "w3w": "52, The Green, Eltisley, St Neots, Cambridgeshire, Cambridgeshire and Peterborough, England, PE19 6TQ, United Kingdom"
    },
    {
        "street": "Church Street",
        "postcode": "SG19 3AF",
        "latitude": 52.1849059,
        "longitude": -0.1429513,
        "maps_url": "https://www.google.com/maps?q=52.1849059,-0.1429513",
        "w3w": "5, Church Street, Great Gransden, Sandy, Cambridgeshire, Cambridgeshire and Peterborough, England, SG19 3AF, United Kingdom"
    },
    {
        "street": "Winchfield",
        "postcode": "SG19 3AN",
        "latitude": 52.1888402,
        "longitude": -0.1423537,
        "maps_url": "https://www.google.com/maps?q=52.1888402,-0.1423537",
        "w3w": "30, Winchfield, Great Gransden, Sandy, Cambridgeshire, Cambridgeshire and Peterborough, England, SG19 3AN, United Kingdom"
    },
    {
        "street": "Church Street",
        "postcode": "SG19 3DU",
        "latitude": 52.1790572,
        "longitude": -0.1438484,
        "maps_url": "https://www.google.com/maps?q=52.1790572,-0.1438484",
        "w3w": "35, Church Street, Little Gransden, South Cambridgeshire, Cambridgeshire, Cambridgeshire and Peterborough, England, SG19 3DU, United Kingdom"
    },
    {
        "street": "Williams Close",
        "postcode": "SG19 3QS",
        "latitude": 52.1869695,
        "longitude": -0.1401393,
        "maps_url": "https://www.google.com/maps?q=52.1869695,-0.1401393",
        "w3w": "1, Williams Close, Great Gransden, Sandy, Cambridgeshire, Cambridgeshire and Peterborough, England, SG19 3QS, United Kingdom"
    },
    {
        "street": "West Street",
        "postcode": "SG19 3AU",
        "latitude": 52.1873765,
        "longitude": -0.1450572,
        "maps_url": "https://www.google.com/maps?q=52.1873765,-0.1450572",
        "w3w": "30, West Street, Great Gransden, Sandy, Cambridgeshire, Cambridgeshire and Peterborough, England, SG19 3AU, United Kingdom"
    },
    {
        "street": "The Green",
        "postcode": "PE19 6TG",
        "latitude": 52.221582,
        "longitude": -0.1407516,
        "maps_url": "https://www.google.com/maps?q=52.221582,-0.1407516",
        "w3w": "26, The Green, Eltisley, St Neots, Cambridgeshire, Cambridgeshire and Peterborough, England, PE19 6TG, United Kingdom"
    },
    {
        "street": "Middle Street",
        "postcode": "SG19 3AD",
        "latitude": 52.1866388,
        "longitude": -0.1419801,
        "maps_url": "https://www.google.com/maps?q=52.1866388,-0.1419801",
        "w3w": "32, Middle Street, Great Gransden, Sandy, Cambridgeshire, Cambridgeshire and Peterborough, England, SG19 3AD, United Kingdom"
    },
    {
        "street": "The Green",
        "postcode": "N14 6EN",
        "latitude": 51.6250502,
        "longitude": -0.1238762,
        "maps_url": "https://www.google.com/maps?q=51.6250502,-0.1238762",
        "w3w": "23-31, The Green, Southgate, London Borough of Enfield, London, Greater London, England, N14 6EN, United Kingdom"
    },
    {
        "street": "Primrose Hill",
        "postcode": "SG19 3DP",
        "latitude": 52.18258,
        "longitude": -0.1358242,
        "maps_url": "https://www.google.com/maps?q=52.18258,-0.1358242",
        "w3w": "41, Primrose Hill, Little Gransden, South Cambridgeshire, Cambridgeshire, Cambridgeshire and Peterborough, England, SG19 3DP, United Kingdom"
    },
    {
        "street": "Greenfields",
        "postcode": "PE19 6TN",
        "latitude": 52.2198934,
        "longitude": -0.1376914,
        "maps_url": "https://www.google.com/maps?q=52.2198934,-0.1376914",
        "w3w": "9, Greenfields, Eltisley, St Neots, Cambridgeshire, Cambridgeshire and Peterborough, England, PE19 6TN, United Kingdom"
    },
    {
        "street": "Greenfields",
        "postcode": "PE19 6TN",
        "latitude": 52.2204478,
        "longitude": -0.1385079,
        "maps_url": "https://www.google.com/maps?q=52.2204478,-0.1385079",
        "w3w": "21, Greenfields, Eltisley, St Neots, Cambridgeshire, Cambridgeshire and Peterborough, England, PE19 6TN, United Kingdom"
    },
    {
        "street": "Fox Street",
        "postcode": "SG19 3AA",
        "latitude": 52.187768,
        "longitude": -0.143069,
        "maps_url": "https://www.google.com/maps?q=52.187768,-0.143069",
        "w3w": "18, Fox Street, Great Gransden, Sandy, Cambridgeshire, Cambridgeshire and Peterborough, England, SG19 3AA, United Kingdom"
    },
    {
        "street": "Dutton Gardens",
        "postcode": "SG19 3EF",
        "latitude": 52.1867677,
        "longitude": -0.1377297,
        "maps_url": "https://www.google.com/maps?q=52.1867677,-0.1377297",
        "w3w": "24, Dutton Gardens, Great Gransden, Huntingdonshire, Cambridgeshire, Cambridgeshire and Peterborough, England, SG19 3EF, United Kingdom"
    },
    {
        "street": "Winchfield",
        "postcode": "SG19 3AN",
        "latitude": 52.1886905,
        "longitude": -0.142441,
        "maps_url": "https://www.google.com/maps?q=52.1886905,-0.142441",
        "w3w": "32, Winchfield, Great Gransden, Sandy, Cambridgeshire, Cambridgeshire and Peterborough, England, SG19 3AN, United Kingdom"
    },
    {
        "street": "High Street",
        "postcode": "SG14 3SB",
        "latitude": 51.8566724,
        "longitude": -0.109667,
        "maps_url": "https://www.google.com/maps?q=51.8566724,-0.109667",
        "w3w": "Watton Post Office, 119F, High Street, Watton-at-Stone, East Hertfordshire, Hertfordshire, England, SG14 3SB, United Kingdom"
    },
    {
        "street": "Morton Way",
        "postcode": "N14 7AL",
        "latitude": 51.6207911,
        "longitude": -0.1330008,
        "maps_url": "https://www.google.com/maps?q=51.6207911,-0.1330008",
        "w3w": "128, Morton Way, New Southgate, London Borough of Enfield, London, Greater London, England, N14 7AL, United Kingdom"
    },
    {
        "street": "Primrose Hill",
        "postcode": "SG19 3DP",
        "latitude": 52.1820431,
        "longitude": -0.1365431,
        "maps_url": "https://www.google.com/maps?q=52.1820431,-0.1365431",
        "w3w": "24, Primrose Hill, Little Gransden, South Cambridgeshire, Cambridgeshire, Cambridgeshire and Peterborough, England, SG19 3DP, United Kingdom"
    },
    {
        "street": "Potton End",
        "postcode": "PE19 6TH",
        "latitude": 52.2166518,
        "longitude": -0.141121,
        "maps_url": "https://www.google.com/maps?q=52.2166518,-0.141121",
        "w3w": "Beehive Cottage, Potton End, Eltisley, St Neots, Cambridgeshire, Cambridgeshire and Peterborough, England, PE19 6TH, United Kingdom"
    },
    {
        "street": "Edwards Mews",
        "postcode": "N1 1SG",
        "latitude": 51.5434974,
        "longitude": -0.1046972,
        "maps_url": "https://www.google.com/maps?q=51.5434974,-0.1046972",
        "w3w": "26, Edwards Mews, Canonbury, Highbury, London Borough of Islington, London, Greater London, England, N1 1SG, United Kingdom"
    },
    {
        "street": "Eltisley Road",
        "postcode": "SG19 3AR",
        "latitude": 52.1893102,
        "longitude": -0.1426289,
        "maps_url": "https://www.google.com/maps?q=52.1893102,-0.1426289",
        "w3w": "18a, Eltisley Road, Great Gransden, Sandy, Cambridgeshire, Cambridgeshire and Peterborough, England, SG19 3AR, United Kingdom"
    },
    {
        "street": "Dutton Gardens",
        "postcode": "SG19 3EF",
        "latitude": 52.1864208,
        "longitude": -0.1376268,
        "maps_url": "https://www.google.com/maps?q=52.1864208,-0.1376268",
        "w3w": "38, Dutton Gardens, Great Gransden, Huntingdonshire, Cambridgeshire, Cambridgeshire and Peterborough, England, SG19 3EF, United Kingdom"
    },
    {
        "street": "Hertingfordbury Road",
        "postcode": "SG14 2LB",
        "latitude": 51.7926863,
        "longitude": -0.1063244,
        "maps_url": "https://www.google.com/maps?q=51.7926863,-0.1063244",
        "w3w": "235, Hertingfordbury Road, Sele Farm, Hertford, Hertingfordbury, East Hertfordshire, Hertfordshire, England, SG14 2LB, United Kingdom"
    },
    {
        "street": "Hertingfordbury Road",
        "postcode": "SG14 2SB",
        "latitude": 51.7930001,
        "longitude": -0.1061865,
        "maps_url": "https://www.google.com/maps?q=51.7930001,-0.1061865",
        "w3w": "229, Hertingfordbury Road, Sele Farm, Hertford, Hertingfordbury, East Hertfordshire, Hertfordshire, England, SG14 2LB, United Kingdom"
    },
    {
        "street": "West Street",
        "postcode": "SG19 3AU",
        "latitude": 52.1875529,
        "longitude": -0.1450489,
        "maps_url": "https://www.google.com/maps?q=52.1875529,-0.1450489",
        "w3w": "38, West Street, Great Gransden, Sandy, Cambridgeshire, Cambridgeshire and Peterborough, England, SG19 3AU, United Kingdom"
    },
    {
        "street": "Baker's Court",
        "postcode": "SG19 3PF",
        "latitude": 52.1870016,
        "longitude": -0.1427155,
        "maps_url": "https://www.google.com/maps?q=52.1870016,-0.1427155",
        "w3w": "5, Baker's Court, Great Gransden, Sandy, Cambridgeshire, Cambridgeshire and Peterborough, England, SG19 3PF, United Kingdom"
    },
    {
        "street": "Edwards Mews",
        "postcode": "N1 1SG",
        "latitude": 51.5435483,
        "longitude": -0.1044703,
        "maps_url": "https://www.google.com/maps?q=51.5435483,-0.1044703",
        "w3w": "23, Edwards Mews, Canonbury, Highbury, London Borough of Islington, London, Greater London, England, N1 1SG, United Kingdom"
    },
    {
        "street": "Church Street",
        "postcode": "SG19 3AF",
        "latitude": 52.1855915,
        "longitude": -0.1414613,
        "maps_url": "https://www.google.com/maps?q=52.1855915,-0.1414613",
        "w3w": "25, Church Street, Great Gransden, Sandy, Cambridgeshire, Cambridgeshire and Peterborough, England, SG19 3AF, United Kingdom"
    },
    {
        "street": "Minchenden Crescent",
        "postcode": "N14 7EN",
        "latitude": 51.6235783,
        "longitude": -0.1288797,
        "maps_url": "https://www.google.com/maps?q=51.6235783,-0.1288797",
        "w3w": "70, Minchenden Crescent, New Southgate, London Borough of Enfield, London, Greater London, England, N14 7EN, United Kingdom"
    },
    {
        "street": "Poplar Close",
        "postcode": "SG19 3AX",
        "latitude": 52.1874581,
        "longitude": -0.1463471,
        "maps_url": "https://www.google.com/maps?q=52.1874581,-0.1463471",
        "w3w": "6, Poplar Close, Great Gransden, Sandy, Cambridgeshire, Cambridgeshire and Peterborough, England, SG19 3AX, United Kingdom"
    },
    {
        "street": "Minchenden Crescent",
        "postcode": "N14 7EN",
        "latitude": 51.6237913,
        "longitude": -0.1278395,
        "maps_url": "https://www.google.com/maps?q=51.6237913,-0.1278395",
        "w3w": "56, Minchenden Crescent, New Southgate, London Borough of Enfield, London, Greater London, England, N14 7EN, United Kingdom"
    },
    {
        "street": "Mandene Gardens",
        "postcode": "SG19 3AP",
        "latitude": 52.186343,
        "longitude": -0.1387572,
        "maps_url": "https://www.google.com/maps?q=52.186343,-0.1387572",
        "w3w": "12, Mandene Gardens, Great Gransden, Sandy, Cambridgeshire, Cambridgeshire and Peterborough, England, SG19 3AP, United Kingdom"
    },
    {
        "street": "St Thomas",
        "postcode": "PE19 6TF",
        "latitude": 52.2219912,
        "longitude": -0.1377933,
        "maps_url": "https://www.google.com/maps?q=52.2219912,-0.1377933",
        "w3w": "3, St Thomas, Eltisley, St Neots, Cambridgeshire, Cambridgeshire and Peterborough, England, PE19 6TF, United Kingdom"
    },
    {
        "street": "Minchenden Crescent",
        "postcode": "N14 7EN",
        "latitude": 51.6231751,
        "longitude": -0.1306126,
        "maps_url": "https://www.google.com/maps?q=51.6231751,-0.1306126",
        "w3w": "96, Minchenden Crescent, New Southgate, London Borough of Enfield, London, Greater London, England, N14 7EN, United Kingdom"
    },
    {
        "street": "Hall Farm Lane",
        "postcode": "SG19 3RB",
        "latitude": 52.187163,
        "longitude": -0.1499057,
        "maps_url": "https://www.google.com/maps?q=52.187163,-0.1499057",
        "w3w": "1, Hall Farm Lane, Great Gransden, Sandy, Cambridgeshire, Cambridgeshire and Peterborough, England, SG19 3RB, United Kingdom"
    },
    {
        "street": "Poplar Close",
        "postcode": "SG19 3AX",
        "latitude": 52.1873561,
        "longitude": -0.1460665,
        "maps_url": "https://www.google.com/maps?q=52.1873561,-0.1460665",
        "w3w": "4, Poplar Close, Great Gransden, Sandy, Cambridgeshire, Cambridgeshire and Peterborough, England, SG19 3AX, United Kingdom"
    },
    {
        "street": "Fleming Crescent",
        "postcode": "SG14 2DJ",
        "latitude": 51.8001684,
        "longitude": -0.1012777,
        "maps_url": "https://www.google.com/maps?q=51.8001684,-0.1012777",
        "w3w": "G Pickett Family Butchers, 14, Fleming Crescent, Sele Farm, Hertford, Hertingfordbury, East Hertfordshire, Hertfordshire, England, SG14 2DJ, United Kingdom"
    },
    {
        "street": "Audley Close",
        "postcode": "SG19 3RL",
        "latitude": 52.1873885,
        "longitude": -0.1401587,
        "maps_url": "https://www.google.com/maps?q=52.1873885,-0.1401587",
        "w3w": "47, Audley Close, Great Gransden, Sandy, Cambridgeshire, Cambridgeshire and Peterborough, England, SG19 3RL, United Kingdom"
    },
    {
        "street": "The Green",
        "postcode": "PE19 6TG",
        "latitude": 52.2199598,
        "longitude": -0.1419938,
        "maps_url": "https://www.google.com/maps?q=52.2199598,-0.1419938",
        "w3w": "63, The Green, Eltisley, St Neots, Cambridgeshire, Cambridgeshire and Peterborough, England, PE19 6TG, United Kingdom"
    },
    {
        "street": "Fox Street",
        "postcode": "SG19 3AA",
        "latitude": 52.1887931,
        "longitude": -0.1429716,
        "maps_url": "https://www.google.com/maps?q=52.1887931,-0.1429716",
        "w3w": "3b, Fox Street, Great Gransden, Sandy, Cambridgeshire, Cambridgeshire and Peterborough, England, SG19 3AA, United Kingdom"
    },
    {
        "street": "Main Road",
        "postcode": "SG19 3DL",
        "latitude": 52.1802238,
        "longitude": -0.1397659,
        "maps_url": "https://www.google.com/maps?q=52.1802238,-0.1397659",
        "w3w": "74, Main Road, Little Gransden, South Cambridgeshire, Cambridgeshire, Cambridgeshire and Peterborough, England, SG19 3DL, United Kingdom"
    },
    {
        "street": "Audley Close",
        "postcode": "SG19 3RL",
        "latitude": 52.1879493,
        "longitude": -0.138652,
        "maps_url": "https://www.google.com/maps?q=52.1879493,-0.138652",
        "w3w": "11, Audley Close, Great Gransden, Sandy, Cambridgeshire, Cambridgeshire and Peterborough, England, SG19 3RL, United Kingdom"
    },
    {
        "street": "The Green",
        "postcode": "PE19 6TG",
        "latitude": 52.2212826,
        "longitude": -0.139078,
        "maps_url": "https://www.google.com/maps?q=52.2212826,-0.139078",
        "w3w": "19, The Green, Eltisley, St Neots, Cambridgeshire, Cambridgeshire and Peterborough, England, PE19 6TG, United Kingdom"
    },
    {
        "street": "Watton at Stone",
        "postcode": "SG14 2RN",
        "latitude": 51.8606455,
        "longitude": -0.1327602,
        "maps_url": "https://www.google.com/maps?q=51.8606455,-0.1327602",
        "w3w": "2 Broomhall Bungalows, A602, Hooks Cross, Watton-at-Stone, East Hertfordshire, Hertfordshire, England, SG14 2RN, United Kingdom"
    },
    {
        "street": "Little Gransden Lane",
        "postcode": "SG19 3BA",
        "latitude": 52.1848098,
        "longitude": -0.1463708,
        "maps_url": "https://www.google.com/maps?q=52.1848098,-0.1463708",
        "w3w": "14, Little Gransden Lane, Great Gransden, Sandy, Cambridgeshire, Cambridgeshire and Peterborough, England, SG19 3BA, United Kingdom"
    },
    {
        "street": "Fuller's Hill",
        "postcode": "SG19 3BP",
        "latitude": 52.1645278,
        "longitude": -0.1478987,
        "maps_url": "https://www.google.com/maps?q=52.1645278,-0.1478987",
        "w3w": "Apple Cottage, Fuller's Hill, Little Gransden, South Cambridgeshire, Cambridgeshire, Cambridgeshire and Peterborough, England, SG19 3BP, United Kingdom"
    },
    {
        "street": "Poplar Close",
        "postcode": "SG19 3AX",
        "latitude": 52.1870736,
        "longitude": -0.1459932,
        "maps_url": "https://www.google.com/maps?q=52.1870736,-0.1459932",
        "w3w": "3, Poplar Close, Great Gransden, Sandy, Cambridgeshire, Cambridgeshire and Peterborough, England, SG19 3AX, United Kingdom"
    },
    {
        "street": "Caxton End",
        "postcode": "PE19 6TJ",
        "latitude": 52.2186076,
        "longitude": -0.1357117,
        "maps_url": "https://www.google.com/maps?q=52.2186076,-0.1357117",
        "w3w": "70, Caxton End, Eltisley, St Neots, Cambridgeshire, Cambridgeshire and Peterborough, England, PE19 6TJ, United Kingdom"
    },
    {
        "street": "Hertingfordbury Road",
        "postcode": "SG14 2LB",
        "latitude": 51.7919521,
        "longitude": -0.1061692,
        "maps_url": "https://www.google.com/maps?q=51.7919521,-0.1061692",
        "w3w": "253, Hertingfordbury Road, Sele Farm, Hertford, Hertingfordbury, East Hertfordshire, Hertfordshire, England, SG14 2LB, United Kingdom"
    },
    {
        "street": "Fox Street",
        "postcode": "SG19 3AA",
        "latitude": 52.1881735,
        "longitude": -0.1427693,
        "maps_url": "https://www.google.com/maps?q=52.1881735,-0.1427693",
        "w3w": "Discher's Pond, 9, Fox Street, Great Gransden, Sandy, Cambridgeshire, Cambridgeshire and Peterborough, England, SG19 3AA, United Kingdom"
    },
    {
        "street": "Primrose Hill",
        "postcode": "SG19 3DP",
        "latitude": 52.1824967,
        "longitude": -0.1347562,
        "maps_url": "https://www.google.com/maps?q=52.1824967,-0.1347562",
        "w3w": "38, Primrose Hill, Little Gransden, South Cambridgeshire, Cambridgeshire, Cambridgeshire and Peterborough, England, SG19 3DP, United Kingdom"
    },
    {
        "street": "Audley Close",
        "postcode": "SG19 3RL",
        "latitude": 52.1878181,
        "longitude": -0.1397148,
        "maps_url": "https://www.google.com/maps?q=52.1878181,-0.1397148",
        "w3w": "39, Audley Close, Great Gransden, Sandy, Cambridgeshire, Cambridgeshire and Peterborough, England, SG19 3RL, United Kingdom"
    },
    {
        "street": "Dutton Gardens",
        "postcode": "SG19 3EF",
        "latitude": 52.1863833,
        "longitude": -0.1376842,
        "maps_url": "https://www.google.com/maps?q=52.1863833,-0.1376842",
        "w3w": "40, Dutton Gardens, Great Gransden, Huntingdonshire, Cambridgeshire, Cambridgeshire and Peterborough, England, SG19 3EF, United Kingdom"
    },
    {
        "street": "Hertingfordbury Road",
        "postcode": "SG14 2LG",
        "latitude": 51.7909385,
        "longitude": -0.108673,
        "maps_url": "https://www.google.com/maps?q=51.7909385,-0.108673",
        "w3w": "274, Hertingfordbury Road, Sele Farm, Hertingfordbury, East Hertfordshire, Hertfordshire, England, SG14 2LG, United Kingdom"
    },
    {
        "street": "Caxton End",
        "postcode": "PE19 6TJ",
        "latitude": 52.2188146,
        "longitude": -0.1353806,
        "maps_url": "https://www.google.com/maps?q=52.2188146,-0.1353806",
        "w3w": "39, Caxton End, Eltisley, St Neots, Cambridgeshire, Cambridgeshire and Peterborough, England, PE19 6TJ, United Kingdom"
    },
    {
        "street": "Primrose Hill",
        "postcode": "SG19 3DP",
        "latitude": 52.1827241,
        "longitude": -0.1351706,
        "maps_url": "https://www.google.com/maps?q=52.1827241,-0.1351706",
        "w3w": "49, Primrose Hill, Little Gransden, South Cambridgeshire, Cambridgeshire, Cambridgeshire and Peterborough, England, SG19 3DP, United Kingdom"
    },
    {
        "street": "Primrose Hill",
        "postcode": "SG19 3QD",
        "latitude": 52.1811506,
        "longitude": -0.1396823,
        "maps_url": "https://www.google.com/maps?q=52.1811506,-0.1396823",
        "w3w": "Hill House, 1, Primrose Hill, Little Gransden, South Cambridgeshire, Cambridgeshire, Cambridgeshire and Peterborough, England, SG19 3QD, United Kingdom"
    },
    {
        "street": "Chase Side",
        "postcode": "N14 4PE",
        "latitude": 51.6444114,
        "longitude": -0.1451016,
        "maps_url": "https://www.google.com/maps?q=51.6444114,-0.1451016",
        "w3w": "Chickenshed, 290, Chase Side, Cockfosters, London Borough of Enfield, London, Greater London, England, N14 4PE, United Kingdom"
    },
    {
        "street": "West Street",
        "postcode": "SG19 3AU",
        "latitude": 52.1875082,
        "longitude": -0.1457814,
        "maps_url": "https://www.google.com/maps?q=52.1875082,-0.1457814",
        "w3w": "Chestnuts, 33, West Street, Great Gransden, Sandy, Cambridgeshire, Cambridgeshire and Peterborough, England, SG19 3AU, United Kingdom"
    },
    {
        "street": "Edwards Mews",
        "postcode": "N1 1SG",
        "latitude": 51.5436868,
        "longitude": -0.1050067,
        "maps_url": "https://www.google.com/maps?q=51.5436868,-0.1050067",
        "w3w": "8, Edwards Mews, Canonbury, Highbury, London Borough of Islington, London, Greater London, England, N1 1SG, United Kingdom"
    },
    {
        "street": "Holly Grove Road",
        "postcode": "SG14 2QH",
        "latitude": 51.8223411,
        "longitude": -0.1251045,
        "maps_url": "https://www.google.com/maps?q=51.8223411,-0.1251045",
        "w3w": "The King's House B&B, 1, Holly Grove Road, Bramfield, East Hertfordshire, Hertfordshire, England, SG14 2QH, United Kingdom"
    },
    {
        "street": "Queens Avenue",
        "postcode": "N10 3PE",
        "latitude": 51.5911489,
        "longitude": -0.1435187,
        "maps_url": "https://www.google.com/maps?q=51.5911489,-0.1435187",
        "w3w": "1, Queens Avenue, Fortis Green, Muswell Hill, London Borough of Haringey, London, Greater London, England, N10 3PE, United Kingdom"
    },
    {
        "street": "Hertingfordbury Road",
        "postcode": "SG14 2LB",
        "latitude": 51.7924031,
        "longitude": -0.1062795,
        "maps_url": "https://www.google.com/maps?q=51.7924031,-0.1062795",
        "w3w": "The Old Cottage, 243, Hertingfordbury Road, Sele Farm, Hertford, Hertingfordbury, East Hertfordshire, Hertfordshire, England, SG14 2LB, United Kingdom"
    },
    {
        "street": "Caxton End",
        "postcode": "PE19 6TJ",
        "latitude": 52.2189059,
        "longitude": -0.1367852,
        "maps_url": "https://www.google.com/maps?q=52.2189059,-0.1367852",
        "w3w": "52, Caxton End, Eltisley, St Neots, Cambridgeshire, Cambridgeshire and Peterborough, England, PE19 6TJ, United Kingdom"
    },
    {
        "street": "Fox Street",
        "postcode": "SG19 3AA",
        "latitude": 52.1874402,
        "longitude": -0.1426852,
        "maps_url": "https://www.google.com/maps?q=52.1874402,-0.1426852",
        "w3w": "32, Fox Street, Great Gransden, Sandy, Cambridgeshire, Cambridgeshire and Peterborough, England, SG19 3AA, United Kingdom"
    },
    {
        "street": "Church Street",
        "postcode": "SG19 3AF",
        "latitude": 52.1851377,
        "longitude": -0.1419,
        "maps_url": "https://www.google.com/maps?q=52.1851377,-0.1419",
        "w3w": "19, Church Street, Great Gransden, Sandy, Cambridgeshire, Cambridgeshire and Peterborough, England, SG19 3AF, United Kingdom"
    },
    {
        "street": "Marconi Place",
        "postcode": "N11 1PE",
        "latitude": 51.6172506,
        "longitude": -0.1395767,
        "maps_url": "https://www.google.com/maps?q=51.6172506,-0.1395767",
        "w3w": "New Southgate Telephone Exchange, 5, Marconi Place, New Southgate, London Borough of Enfield, London, Greater London, England, N11 1PE, United Kingdom"
    },
    {
        "street": "Primrose Walk",
        "postcode": "SG19 3DR",
        "latitude": 52.1821474,
        "longitude": -0.1386225,
        "maps_url": "https://www.google.com/maps?q=52.1821474,-0.1386225",
        "w3w": "7, Primrose Walk, Little Gransden, South Cambridgeshire, Cambridgeshire, Cambridgeshire and Peterborough, England, SG19 3DR, United Kingdom"
    },
    {
        "street": "Mandene Gardens",
        "postcode": "SG19 3AP",
        "latitude": 52.1862253,
        "longitude": -0.13931,
        "maps_url": "https://www.google.com/maps?q=52.1862253,-0.13931",
        "w3w": "7, Mandene Gardens, Great Gransden, Sandy, Cambridgeshire, Cambridgeshire and Peterborough, England, SG19 3AP, United Kingdom"
    },
    {
        "street": "Dutton Gardens",
        "postcode": "SG19 3EF",
        "latitude": 52.1870511,
        "longitude": -0.1387639,
        "maps_url": "https://www.google.com/maps?q=52.1870511,-0.1387639",
        "w3w": "4, Dutton Gardens, Great Gransden, Huntingdonshire, Cambridgeshire, Cambridgeshire and Peterborough, England, SG19 3EF, United Kingdom"
    },
    {
        "street": "Hertingfordbury Hill",
        "postcode": "SG14 2LJ",
        "latitude": 51.7894443,
        "longitude": -0.1143887,
        "maps_url": "https://www.google.com/maps?q=51.7894443,-0.1143887",
        "w3w": "Lodge Cottage, Hertingfordbury Hill, The Bury Farm, Hertingfordbury, East Hertfordshire, Hertfordshire, England, SG14 2LJ, United Kingdom"
    },
    {
        "street": "Main Road",
        "postcode": "SG19 3DL",
        "latitude": 52.1802596,
        "longitude": -0.139638,
        "maps_url": "https://www.google.com/maps?q=52.1802596,-0.139638",
        "w3w": "66, Main Road, Little Gransden, South Cambridgeshire, Cambridgeshire, Cambridgeshire and Peterborough, England, SG19 3DL, United Kingdom"
    },
    {
        "street": "Chapel Market",
        "postcode": "N1 9EN",
        "latitude": 51.5337176,
        "longitude": -0.1079741,
        "maps_url": "https://www.google.com/maps?q=51.5337176,-0.1079741",
        "w3w": "Betfred, 33, Chapel Market, Angel, Barnsbury, London Borough of Islington, London, Greater London, England, N1 9EN, United Kingdom"
    },
    {
        "street": "Audley Close",
        "postcode": "SG19 3RL",
        "latitude": 52.1882719,
        "longitude": -0.13909,
        "maps_url": "https://www.google.com/maps?q=52.1882719,-0.13909",
        "w3w": "3, Audley Close, Great Gransden, Sandy, Cambridgeshire, Cambridgeshire and Peterborough, England, SG19 3RL, United Kingdom"
    },
    {
        "street": "The Green",
        "postcode": "PE19 6TG",
        "latitude": 52.2207163,
        "longitude": -0.1428258,
        "maps_url": "https://www.google.com/maps?q=52.2207163,-0.1428258",
        "w3w": "81, The Green, Eltisley, St Neots, Cambridgeshire, Cambridgeshire and Peterborough, England, PE19 6TG, United Kingdom"
    },
    {
        "street": "Little Lane",
        "postcode": "SG19 3AE",
        "latitude": 52.1864689,
        "longitude": -0.1438571,
        "maps_url": "https://www.google.com/maps?q=52.1864689,-0.1438571",
        "w3w": "The School House, 6, Little Lane, Great Gransden, Sandy, Cambridgeshire, Cambridgeshire and Peterborough, England, SG19 3AE, United Kingdom"
    },
    {
        "street": "George Crescent",
        "postcode": "N10 1AL",
        "latitude": 51.60489,
        "longitude": -0.1500022,
        "maps_url": "https://www.google.com/maps?q=51.60489,-0.1500022",
        "w3w": "5, George Crescent, Colney Hatch, London Borough of Barnet, London, Greater London, England, N10 1AL, United Kingdom"
    },
    {
        "street": "Fox Lane",
        "postcode": "N13 4AL",
        "latitude": 51.6227444,
        "longitude": -0.1105177,
        "maps_url": "https://www.google.com/maps?q=51.6227444,-0.1105177",
        "w3w": "Burford Hall, Fox Lane, Palmers Green, London Borough of Enfield, London, Greater London, England, N13 4AL, United Kingdom"
    },
    {
        "street": "Eltisley Road",
        "postcode": "SG19 3AR",
        "latitude": 52.1895901,
        "longitude": -0.1435485,
        "maps_url": "https://www.google.com/maps?q=52.1895901,-0.1435485",
        "w3w": "23, Eltisley Road, Great Gransden, Sandy, Cambridgeshire, Cambridgeshire and Peterborough, England, SG19 3AR, United Kingdom"
    },
    {
        "street": "Primrose Walk",
        "postcode": "SG19 3DR",
        "latitude": 52.1824859,
        "longitude": -0.138787,
        "maps_url": "https://www.google.com/maps?q=52.1824859,-0.138787",
        "w3w": "16, Primrose Walk, Little Gransden, South Cambridgeshire, Cambridgeshire, Cambridgeshire and Peterborough, England, SG19 3DR, United Kingdom"
    },
    {
        "street": "St Mary's Lane",
        "postcode": "SG14 2LF",
        "latitude": 51.7870644,
        "longitude": -0.1034841,
        "maps_url": "https://www.google.com/maps?q=51.7870644,-0.1034841",
        "w3w": "Spring House, St Mary's Lane, Horn's Mill, Hertford, Hertingfordbury, East Hertfordshire, Hertfordshire, England, SG14 2LF, United Kingdom"
    },
    {
        "street": "Queens Avenue",
        "postcode": "N10 3PE",
        "latitude": 51.5917205,
        "longitude": -0.1457519,
        "maps_url": "https://www.google.com/maps?q=51.5917205,-0.1457519",
        "w3w": "29, Queens Avenue, Fortis Green, Muswell Hill, London Borough of Haringey, London, Greater London, England, N10 3PE, United Kingdom"
    },
    {
        "street": "Minchenden Crescent",
        "postcode": "N14 7EN",
        "latitude": 51.6232118,
        "longitude": -0.1304788,
        "maps_url": "https://www.google.com/maps?q=51.6232118,-0.1304788",
        "w3w": "94, Minchenden Crescent, New Southgate, London Borough of Enfield, London, Greater London, England, N14 7EN, United Kingdom"
    },
    {
        "street": "Muswell Avenue",
        "postcode": "N10 2EN",
        "latitude": 51.5994241,
        "longitude": -0.1443445,
        "maps_url": "https://www.google.com/maps?q=51.5994241,-0.1443445",
        "w3w": "129, Muswell Avenue, Muswell Hill, London Borough of Haringey, London, Greater London, England, N10 2EN, United Kingdom"
    },
    {
        "street": "Queens Avenue",
        "postcode": "N10 3PE",
        "latitude": 51.591248,
        "longitude": -0.1438586,
        "maps_url": "https://www.google.com/maps?q=51.591248,-0.1438586",
        "w3w": "5, Queens Avenue, Fortis Green, Muswell Hill, London Borough of Haringey, London, Greater London, England, N10 3PE, United Kingdom"
    },
    {
        "street": "Church Street",
        "postcode": "SG19 3AF",
        "latitude": 52.1845888,
        "longitude": -0.1431521,
        "maps_url": "https://www.google.com/maps?q=52.1845888,-0.1431521",
        "w3w": "The Old Vicarage, 6, Church Street, Great Gransden, Sandy, Cambridgeshire, Cambridgeshire and Peterborough, England, SG19 3AF, United Kingdom"
    },
    {
        "street": "Crown Lane",
        "postcode": "N14 5EN",
        "latitude": 51.6321215,
        "longitude": -0.1287382,
        "maps_url": "https://www.google.com/maps?q=51.6321215,-0.1287382",
        "w3w": "Trojan Ink Studio, 86, Crown Lane, Southgate, London Borough of Enfield, London, Greater London, England, N14 5EN, United Kingdom"
    },
    {
        "street": "Queens Avenue",
        "postcode": "N10 3PE",
        "latitude": 51.5915722,
        "longitude": -0.1469649,
        "maps_url": "https://www.google.com/maps?q=51.5915722,-0.1469649",
        "w3w": "43, Queens Avenue, Fortis Green, Muswell Hill, London Borough of Haringey, London, Greater London, England, N10 3PE, United Kingdom"
    },
    {
        "street": "Winchfield",
        "postcode": "SG19 3AN",
        "latitude": 52.1891007,
        "longitude": -0.1421933,
        "maps_url": "https://www.google.com/maps?q=52.1891007,-0.1421933",
        "w3w": "24, Winchfield, Great Gransden, Sandy, Cambridgeshire, Cambridgeshire and Peterborough, England, SG19 3AN, United Kingdom"
    },
    {
        "street": "Hertingfordbury Road",
        "postcode": "SG14 2SB",
        "latitude": 51.7933906,
        "longitude": -0.1052872,
        "maps_url": "https://www.google.com/maps?q=51.7933906,-0.1052872",
        "w3w": "Epcombs, Hertingfordbury Road, Sele Farm, Hertford, Hertingfordbury, East Hertfordshire, Hertfordshire, England, SG14 2SB, United Kingdom"
    },
    {
        "street": "Caxton End",
        "postcode": "PE19 6TJ",
        "latitude": 52.2192182,
        "longitude": -0.1369268,
        "maps_url": "https://www.google.com/maps?q=52.2192182,-0.1369268",
        "w3w": "21, Caxton End, Eltisley, St Neots, Cambridgeshire, Cambridgeshire and Peterborough, England, PE19 6TJ, United Kingdom"
    },
    {
        "street": "Queens Avenue",
        "postcode": "N10 3PE",
        "latitude": 51.5915396,
        "longitude": -0.1471343,
        "maps_url": "https://www.google.com/maps?q=51.5915396,-0.1471343",
        "w3w": "45, Queens Avenue, Fortis Green, Muswell Hill, London Borough of Haringey, London, Greater London, England, N10 3PE, United Kingdom"
    },
    {
        "street": "Potton End",
        "postcode": "PE19 6TH",
        "latitude": 52.2166086,
        "longitude": -0.1430495,
        "maps_url": "https://www.google.com/maps?q=52.2166086,-0.1430495",
        "w3w": "Potton End, Eltisley, South Cambridgeshire, Cambridgeshire, Cambridgeshire and Peterborough, England, PE19 6TH, United Kingdom"
    },
    {
        "street": "Morton Way",
        "postcode": "N14 7AL",
        "latitude": 51.6214769,
        "longitude": -0.1343766,
        "maps_url": "https://www.google.com/maps?q=51.6214769,-0.1343766",
        "w3w": "154, Morton Way, New Southgate, London Borough of Enfield, London, Greater London, England, N14 7AL, United Kingdom"
    },
    {
        "street": "West Street",
        "postcode": "SG19 3AU",
        "latitude": 52.1879974,
        "longitude": -0.1444068,
        "maps_url": "https://www.google.com/maps?q=52.1879974,-0.1444068",
        "w3w": "44, West Street, Great Gransden, Sandy, Cambridgeshire, Cambridgeshire and Peterborough, England, SG19 3AU, United Kingdom"
    },
    {
        "street": "Hertingfordbury Hill",
        "postcode": "SG14 2LJ",
        "latitude": 51.7890458,
        "longitude": -0.1138544,
        "maps_url": "https://www.google.com/maps?q=51.7890458,-0.1138544",
        "w3w": "The Bury Farm, Hertingfordbury Hill, The Bury Farm, Hertingfordbury, East Hertfordshire, Hertfordshire, England, SG14 2LJ, United Kingdom"
    },
    {
        "street": "Hertingfordbury Road",
        "postcode": "SG14 2LG",
        "latitude": 51.790385,
        "longitude": -0.1119968,
        "maps_url": "https://www.google.com/maps?q=51.790385,-0.1119968",
        "w3w": "Bury Bungalow, 282, Hertingfordbury Road, Sele Farm, Hertingfordbury, East Hertfordshire, Hertfordshire, England, SG14 2LG, United Kingdom"
    },
    {
        "street": "The Green",
        "postcode": "PE19 6TG",
        "latitude": 52.2218802,
        "longitude": -0.1395415,
        "maps_url": "https://www.google.com/maps?q=52.2218802,-0.1395415",
        "w3w": "4, The Green, Eltisley, St Neots, Cambridgeshire, Cambridgeshire and Peterborough, England, PE19 6TG, United Kingdom"
    },
    {
        "street": "Whittets Close",
        "postcode": "SG19 3AL",
        "latitude": 52.1853161,
        "longitude": -0.1440107,
        "maps_url": "https://www.google.com/maps?q=52.1853161,-0.1440107",
        "w3w": "6, Whittets Close, Great Gransden, Sandy, Cambridgeshire, Cambridgeshire and Peterborough, England, SG19 3AL, United Kingdom"
    },
    {
        "street": "West Street",
        "postcode": "SG19 3AT",
        "latitude": 52.1866467,
        "longitude": -0.1454804,
        "maps_url": "https://www.google.com/maps?q=52.1866467,-0.1454804",
        "w3w": "The Old Meeting House, 20, West Street, Great Gransden, Sandy, Cambridgeshire, Cambridgeshire and Peterborough, England, SG19 3AT, United Kingdom"
    },
    {
        "street": "Eltisley Road",
        "postcode": "SG19 3AR",
        "latitude": 52.1916137,
        "longitude": -0.1424891,
        "maps_url": "https://www.google.com/maps?q=52.1916137,-0.1424891",
        "w3w": "Highbury Fields House, 25, Eltisley Road, Great Gransden, Huntingdonshire, Cambridgeshire, Cambridgeshire and Peterborough, England, SG19 3AR, United Kingdom"
    },
    {
        "street": "Caxton End",
        "postcode": "PE19 6TJ",
        "latitude": 52.2195378,
        "longitude": -0.1381149,
        "maps_url": "https://www.google.com/maps?q=52.2195378,-0.1381149",
        "w3w": "11, Caxton End, Eltisley, St Neots, Cambridgeshire, Cambridgeshire and Peterborough, England, PE19 6TJ, United Kingdom"
    },
    {
        "street": "Queens Avenue",
        "postcode": "N10 3PE",
        "latitude": 51.5914545,
        "longitude": -0.147467,
        "maps_url": "https://www.google.com/maps?q=51.5914545,-0.147467",
        "w3w": "49, Queens Avenue, Fortis Green, Muswell Hill, London Borough of Haringey, London, Greater London, England, N10 3PE, United Kingdom"
    },
    {
        "street": "Audley Close",
        "postcode": "SG19 3RL",
        "latitude": 52.1877771,
        "longitude": -0.139149,
        "maps_url": "https://www.google.com/maps?q=52.1877771,-0.139149",
        "w3w": "25, Audley Close, Great Gransden, Sandy, Cambridgeshire, Cambridgeshire and Peterborough, England, SG19 3RL, United Kingdom"
    },
    {
        "street": "Church Street",
        "postcode": "SG19 3AF",
        "latitude": 52.1842608,
        "longitude": -0.1438048,
        "maps_url": "https://www.google.com/maps?q=52.1842608,-0.1438048",
        "w3w": "4, Church Street, Great Gransden, Sandy, Cambridgeshire, Cambridgeshire and Peterborough, England, SG19 3AF, United Kingdom"
    },
    {
        "street": "Caxton Road",
        "postcode": "SG19 3BQ",
        "latitude": 52.1952566,
        "longitude": -0.1145582,
        "maps_url": "https://www.google.com/maps?q=52.1952566,-0.1145582",
        "w3w": "Hardwicke Villa, Caxton Road, Hardwicke, Great Gransden, Huntingdonshire, Cambridgeshire, Cambridgeshire and Peterborough, England, SG19 3BQ, United Kingdom"
    },
    {
        "street": "Church Street",
        "postcode": "SG19 3AF",
        "latitude": 52.1853186,
        "longitude": -0.1410861,
        "maps_url": "https://www.google.com/maps?q=52.1853186,-0.1410861",
        "w3w": "32, Church Street, Great Gransden, Sandy, Cambridgeshire, Cambridgeshire and Peterborough, England, SG19 3AF, United Kingdom"
    },
    {
        "street": "Longstowe Road",
        "postcode": "SG19 3EB",
        "latitude": 52.1656881,
        "longitude": -0.117753,
        "maps_url": "https://www.google.com/maps?q=52.1656881,-0.117753",
        "w3w": "Gransden Lodge, Longstowe Road, Little Gransden, South Cambridgeshire, Cambridgeshire, Cambridgeshire and Peterborough, England, SG19 3EB, United Kingdom"
    },
    {
        "street": "St Neots Road",
        "postcode": "PE19 6TE",
        "latitude": 52.22166,
        "longitude": -0.145226,
        "maps_url": "https://www.google.com/maps?q=52.22166,-0.145226",
        "w3w": "34, St Neots Road, Eltisley, St Neots, Cambridgeshire, Cambridgeshire and Peterborough, England, PE19 6TE, United Kingdom"
    },
    {
        "street": "Minchenden Crescent",
        "postcode": "N14 7EN",
        "latitude": 51.6232939,
        "longitude": -0.1300748,
        "maps_url": "https://www.google.com/maps?q=51.6232939,-0.1300748",
        "w3w": "88, Minchenden Crescent, New Southgate, London Borough of Enfield, London, Greater London, England, N14 7EN, United Kingdom"
    },
    {
        "street": "Newgate Street Village",
        "postcode": "SG13 8RA",
        "latitude": 51.7291571,
        "longitude": -0.1167461,
        "maps_url": "https://www.google.com/maps?q=51.7291571,-0.1167461",
        "w3w": "Ponsbourne St Mary's Church of England Primary School, Newgate Street Village, Hatfield, Newgate Street, Welwyn Hatfield, Hertfordshire, England, SG13 8RA, United Kingdom"
    },
    {
        "street": "Eltisley Road",
        "postcode": "SG19 3AR",
        "latitude": 52.1891555,
        "longitude": -0.1432022,
        "maps_url": "https://www.google.com/maps?q=52.1891555,-0.1432022",
        "w3w": "16, Eltisley Road, Great Gransden, Sandy, Cambridgeshire, Cambridgeshire and Peterborough, England, SG19 3AR, United Kingdom"
    },
    {
        "street": "Muswell Avenue",
        "postcode": "N10 2EN",
        "latitude": 51.599322,
        "longitude": -0.1442744,
        "maps_url": "https://www.google.com/maps?q=51.599322,-0.1442744",
        "w3w": "125, Muswell Avenue, Muswell Hill, London Borough of Haringey, London, Greater London, England, N10 2EN, United Kingdom"
    },
    {
        "street": "Kiver Road",
        "postcode": "N19 4PE",
        "latitude": 51.5634263,
        "longitude": -0.1250437,
        "maps_url": "https://www.google.com/maps?q=51.5634263,-0.1250437",
        "w3w": "11, Kiver Road, Holloway, London Borough of Islington, London, Greater London, England, N19 4PE, United Kingdom"
    },
    {
        "street": "Caxton Road",
        "postcode": "SG19 3BG",
        "latitude": 52.1913579,
        "longitude": -0.1345211,
        "maps_url": "https://www.google.com/maps?q=52.1913579,-0.1345211",
        "w3w": "2, Caxton Road, Great Gransden, Huntingdonshire, Cambridgeshire, Cambridgeshire and Peterborough, England, SG19 3BG, United Kingdom"
    },
    {
        "street": "Minchenden Crescent",
        "postcode": "N14 7EN",
        "latitude": 51.6237656,
        "longitude": -0.1280403,
        "maps_url": "https://www.google.com/maps?q=51.6237656,-0.1280403",
        "w3w": "58, Minchenden Crescent, New Southgate, London Borough of Enfield, London, Greater London, England, N14 7EN, United Kingdom"
    },
    {
        "street": "Eltisley Road",
        "postcode": "SG19 3AR",
        "latitude": 52.1893032,
        "longitude": -0.1437234,
        "maps_url": "https://www.google.com/maps?q=52.1893032,-0.1437234",
        "w3w": "Six Bells, 19, Eltisley Road, Great Gransden, Sandy, Cambridgeshire, Cambridgeshire and Peterborough, England, SG19 3AR, United Kingdom"
    },
    {
        "street": "The Green",
        "postcode": "PE19 6TG",
        "latitude": 52.221886,
        "longitude": -0.1412577,
        "maps_url": "https://www.google.com/maps?q=52.221886,-0.1412577",
        "w3w": "Common Farm, The Green, Eltisley, St Neots, Cambridgeshire, Cambridgeshire and Peterborough, England, PE19 6TG, United Kingdom"
    },
    {
        "street": "West Street",
        "postcode": "SG19 3AU",
        "latitude": 52.1885278,
        "longitude": -0.1446319,
        "maps_url": "https://www.google.com/maps?q=52.1885278,-0.1446319",
        "w3w": "53, West Street, Great Gransden, Sandy, Cambridgeshire, Cambridgeshire and Peterborough, England, SG19 3AU, United Kingdom"
    },
    {
        "street": "Sand Road Industrial Estate",
        "postcode": "SG19 3AH",
        "latitude": 52.1884695,
        "longitude": -0.1361863,
        "maps_url": "https://www.google.com/maps?q=52.1884695,-0.1361863",
        "w3w": "Above All Autocentre, 1, Sand Road, Great Gransden, Huntingdonshire, Cambridgeshire, Cambridgeshire and Peterborough, England, SG19 3AH, United Kingdom"
    },
    {
        "street": "Queens Avenue",
        "postcode": "N10 3PE",
        "latitude": 51.5917101,
        "longitude": -0.145916,
        "maps_url": "https://www.google.com/maps?q=51.5917101,-0.145916",
        "w3w": "31, Queens Avenue, Fortis Green, Muswell Hill, London Borough of Haringey, London, Greater London, England, N10 3PE, United Kingdom"
    },
    {
        "street": "Mayflower Close",
        "postcode": "SG14 2LH",
        "latitude": 51.7907832,
        "longitude": -0.1108918,
        "maps_url": "https://www.google.com/maps?q=51.7907832,-0.1108918",
        "w3w": "The Pines, 1, Mayflower Close, Sele Farm, Hertford, Hertingfordbury, East Hertfordshire, Hertfordshire, England, SG14 2LH, United Kingdom"
    },
    {
        "street": "Whittets Close",
        "postcode": "SG19 3AL",
        "latitude": 52.1853026,
        "longitude": -0.1443877,
        "maps_url": "https://www.google.com/maps?q=52.1853026,-0.1443877",
        "w3w": "5, Whittets Close, Great Gransden, Sandy, Cambridgeshire, Cambridgeshire and Peterborough, England, SG19 3AL, United Kingdom"
    },
    {
        "street": "Manor Lane",
        "postcode": "SG19 3RA",
        "latitude": 52.1872285,
        "longitude": -0.1488582,
        "maps_url": "https://www.google.com/maps?q=52.1872285,-0.1488582",
        "w3w": "The Croft, 6, Manor Lane, Great Gransden, Sandy, Cambridgeshire, Cambridgeshire and Peterborough, England, SG19 3RA, United Kingdom"
    },
    {
        "street": "Poplar Grove",
        "postcode": "N11 3PE",
        "latitude": 51.6093884,
        "longitude": -0.1476755,
        "maps_url": "https://www.google.com/maps?q=51.6093884,-0.1476755",
        "w3w": "95, Poplar Grove, Colney Hatch, London Borough of Barnet, London, Greater London, England, N11 3PE, United Kingdom"
    },
    {
        "street": "Fox Street",
        "postcode": "SG19 3AA",
        "latitude": 52.1875721,
        "longitude": -0.1442784,
        "maps_url": "https://www.google.com/maps?q=52.1875721,-0.1442784",
        "w3w": "Feng Shui, 4, Fox Street, Great Gransden, Sandy, Cambridgeshire, Cambridgeshire and Peterborough, England, SG19 3AA, United Kingdom"
    },
    {
        "street": "Edwards Mews",
        "postcode": "N1 1SG",
        "latitude": 51.5436161,
        "longitude": -0.1055999,
        "maps_url": "https://www.google.com/maps?q=51.5436161,-0.1055999",
        "w3w": "1, Edwards Mews, Canonbury, Highbury, London Borough of Islington, London, Greater London, England, N1 1SG, United Kingdom"
    },
    {
        "street": "Church Street",
        "postcode": "SG19 3AF",
        "latitude": 52.1854452,
        "longitude": -0.1415901,
        "maps_url": "https://www.google.com/maps?q=52.1854452,-0.1415901",
        "w3w": "23, Church Street, Great Gransden, Sandy, Cambridgeshire, Cambridgeshire and Peterborough, England, SG19 3AF, United Kingdom"
    },
    {
        "street": "The Green",
        "postcode": "PE19 6TG",
        "latitude": 52.2200412,
        "longitude": -0.1419427,
        "maps_url": "https://www.google.com/maps?q=52.2200412,-0.1419427",
        "w3w": "61, The Green, Eltisley, St Neots, Cambridgeshire, Cambridgeshire and Peterborough, England, PE19 6TG, United Kingdom"
    },
    {
        "street": "Main Road",
        "postcode": "SG19 3DL",
        "latitude": 52.1803228,
        "longitude": -0.1401616,
        "maps_url": "https://www.google.com/maps?q=52.1803228,-0.1401616",
        "w3w": "69, Main Road, Little Gransden, South Cambridgeshire, Cambridgeshire, Cambridgeshire and Peterborough, England, SG19 3DL, United Kingdom"
    },
    {
        "street": "Eltisley Road",
        "postcode": "SG19 3AS",
        "latitude": 52.2001558,
        "longitude": -0.1411651,
        "maps_url": "https://www.google.com/maps?q=52.2001558,-0.1411651",
        "w3w": "Leycourt Cottage, Eltisley Road, Great Gransden, Huntingdonshire, Cambridgeshire, Cambridgeshire and Peterborough, England, SG19 3AS, United Kingdom"
    },
    {
        "street": "Edwards Mews",
        "postcode": "N1 1SG",
        "latitude": 51.5435084,
        "longitude": -0.1046252,
        "maps_url": "https://www.google.com/maps?q=51.5435084,-0.1046252",
        "w3w": "25, Edwards Mews, Canonbury, Highbury, London Borough of Islington, London, Greater London, England, N1 1SG, United Kingdom"
    },
    {
        "street": "East Street",
        "postcode": "SG19 3AB",
        "latitude": 52.1865192,
        "longitude": -0.1416063,
        "maps_url": "https://www.google.com/maps?q=52.1865192,-0.1416063",
        "w3w": "Home Farm, 10, East Street, Great Gransden, Sandy, Cambridgeshire, Cambridgeshire and Peterborough, England, SG19 3AB, United Kingdom"
    },
    {
        "street": "St Mary's Lane",
        "postcode": "SG14 2LE",
        "latitude": 51.7875553,
        "longitude": -0.1041032,
        "maps_url": "https://www.google.com/maps?q=51.7875553,-0.1041032",
        "w3w": "Cornerwood House, 54, St Mary's Lane, Horn's Mill, Hertford, Hertingfordbury, East Hertfordshire, Hertfordshire, England, SG14 2LE, United Kingdom"
    },
    {
        "street": "Chapel Market",
        "postcode": "N1 9EN",
        "latitude": 51.5337434,
        "longitude": -0.107216,
        "maps_url": "https://www.google.com/maps?q=51.5337434,-0.107216",
        "w3w": "Wenzel's, 42-43, Chapel Market, Angel, Barnsbury, London Borough of Islington, London, Greater London, England, N1 9EN, United Kingdom"
    },
    {
        "street": "Dutton Gardens",
        "postcode": "SG19 3EF",
        "latitude": 52.1868863,
        "longitude": -0.1385565,
        "maps_url": "https://www.google.com/maps?q=52.1868863,-0.1385565",
        "w3w": "6, Dutton Gardens, Great Gransden, Huntingdonshire, Cambridgeshire, Cambridgeshire and Peterborough, England, SG19 3EF, United Kingdom"
    },
    {
        "street": "Queens Avenue",
        "postcode": "N10 3PE",
        "latitude": 51.5912163,
        "longitude": -0.1436809,
        "maps_url": "https://www.google.com/maps?q=51.5912163,-0.1436809",
        "w3w": "3, Queens Avenue, Fortis Green, Muswell Hill, London Borough of Haringey, London, Greater London, England, N10 3PE, United Kingdom"
    },
    {
        "street": "Church Walk",
        "postcode": "SG19 3DY",
        "latitude": 52.1794333,
        "longitude": -0.1411369,
        "maps_url": "https://www.google.com/maps?q=52.1794333,-0.1411369",
        "w3w": "3, Church Walk, Little Gransden, South Cambridgeshire, Cambridgeshire, Cambridgeshire and Peterborough, England, SG19 3DY, United Kingdom"
    },
    {
        "street": "The Green",
        "postcode": "PE19 6TG",
        "latitude": 52.2217651,
        "longitude": -0.1386368,
        "maps_url": "https://www.google.com/maps?q=52.2217651,-0.1386368",
        "w3w": "7, The Green, Eltisley, St Neots, Cambridgeshire, Cambridgeshire and Peterborough, England, PE19 6TG, United Kingdom"
    },
    {
        "street": "Church Street",
        "postcode": "SG19 3AF",
        "latitude": 52.1838796,
        "longitude": -0.1426745,
        "maps_url": "https://www.google.com/maps?q=52.1838796,-0.1426745",
        "w3w": "Rectory Farm, Church Street, Great Gransden, Sandy, Cambridgeshire, Cambridgeshire and Peterborough, England, SG19 3AF, United Kingdom"
    },
    {
        "street": "Rectory Lane",
        "postcode": "SG14 3SG",
        "latitude": 51.8549816,
        "longitude": -0.1142213,
        "maps_url": "https://www.google.com/maps?q=51.8549816,-0.1142213",
        "w3w": "Watton-at-Stone Primary and Nursery School, Rectory Lane, Watton-at-Stone, East Hertfordshire, Hertfordshire, England, SG14 3SG, United Kingdom"
    },
    {
        "street": "Eltisley Road",
        "postcode": "SG19 3AR",
        "latitude": 52.188984,
        "longitude": -0.1433867,
        "maps_url": "https://www.google.com/maps?q=52.188984,-0.1433867",
        "w3w": "14, Eltisley Road, Great Gransden, Sandy, Cambridgeshire, Cambridgeshire and Peterborough, England, SG19 3AR, United Kingdom"
    },
    {
        "street": "Eltisley Road",
        "postcode": "SG19 3AR",
        "latitude": 52.1886332,
        "longitude": -0.144308,
        "maps_url": "https://www.google.com/maps?q=52.1886332,-0.144308",
        "w3w": "1, Eltisley Road, Great Gransden, Sandy, Cambridgeshire, Cambridgeshire and Peterborough, England, SG19 3AR, United Kingdom"
    },
    {
        "street": "Hertingfordbury Road",
        "postcode": "SG14 2LG",
        "latitude": 51.7908187,
        "longitude": -0.1085105,
        "maps_url": "https://www.google.com/maps?q=51.7908187,-0.1085105",
        "w3w": "268, Hertingfordbury Road, Sele Farm, Hertingfordbury, East Hertfordshire, Hertfordshire, England, SG14 2LG, United Kingdom"
    },
    {
        "street": "Caxton End",
        "postcode": "PE19 6TJ",
        "latitude": 52.2186392,
        "longitude": -0.1363983,
        "maps_url": "https://www.google.com/maps?q=52.2186392,-0.1363983",
        "w3w": "58, Caxton End, Eltisley, St Neots, Cambridgeshire, Cambridgeshire and Peterborough, England, PE19 6TJ, United Kingdom"
    },
    {
        "street": "Caxton End",
        "postcode": "PE19 6TJ",
        "latitude": 52.2185843,
        "longitude": -0.1362255,
        "maps_url": "https://www.google.com/maps?q=52.2185843,-0.1362255",
        "w3w": "60, Caxton End, Eltisley, St Neots, Cambridgeshire, Cambridgeshire and Peterborough, England, PE19 6TJ, United Kingdom"
    },
    {
        "street": "Caxton End",
        "postcode": "PE19 6TJ",
        "latitude": 52.2194722,
        "longitude": -0.1385588,
        "maps_url": "https://www.google.com/maps?q=52.2194722,-0.1385588",
        "w3w": "24, Caxton End, Eltisley, St Neots, Cambridgeshire, Cambridgeshire and Peterborough, England, PE19 6TJ, United Kingdom"
    },
    {
        "street": "Chapel Market",
        "postcode": "N1 9EN",
        "latitude": 51.5336301,
        "longitude": -0.1085026,
        "maps_url": "https://www.google.com/maps?q=51.5336301,-0.1085026",
        "w3w": "Chapel Market Post Office, 27, Chapel Market, Angel, Barnsbury, London Borough of Islington, London, Greater London, England, N1 9EN, United Kingdom"
    },
    {
        "street": "Crown Lane",
        "postcode": "N14 5EN",
        "latitude": 51.6320161,
        "longitude": -0.1285271,
        "maps_url": "https://www.google.com/maps?q=51.6320161,-0.1285271",
        "w3w": "Family Bakery, 92, Crown Lane, Southgate, London Borough of Enfield, London, Greater London, England, N14 5EN, United Kingdom"
    },
    {
        "street": "Welwyn Road",
        "postcode": "SG14 2DG",
        "latitude": 51.7976598,
        "longitude": -0.1012532,
        "maps_url": "https://www.google.com/maps?q=51.7976598,-0.1012532",
        "w3w": "The Sele School, Welwyn Road, Fordwich, Hertford, Hertingfordbury, East Hertfordshire, Hertfordshire, England, SG14 2DG, United Kingdom"
    },
    {
        "street": "Watton at Stone",
        "postcode": "SG14 2RN",
        "latitude": 51.8605984,
        "longitude": -0.13251,
        "maps_url": "https://www.google.com/maps?q=51.8605984,-0.13251",
        "w3w": "1 Broomhall Bungalows, A602, Hooks Cross, Watton-at-Stone, East Hertfordshire, Hertfordshire, England, SG14 2RN, United Kingdom"
    },
    {
        "street": "Winchfield",
        "postcode": "SG19 3AN",
        "latitude": 52.1880695,
        "longitude": -0.1411675,
        "maps_url": "https://www.google.com/maps?q=52.1880695,-0.1411675",
        "w3w": "46, Winchfield, Great Gransden, Sandy, Cambridgeshire, Cambridgeshire and Peterborough, England, SG19 3AN, United Kingdom"
    },
    {
        "street": "Primrose Hill",
        "postcode": "SG19 3DP",
        "latitude": 52.1818151,
        "longitude": -0.1386015,
        "maps_url": "https://www.google.com/maps?q=52.1818151,-0.1386015",
        "w3w": "Little Gransden Village Hall, Primrose Hill, Little Gransden, South Cambridgeshire, Cambridgeshire, Cambridgeshire and Peterborough, England, SG19 3DP, United Kingdom"
    },
    {
        "street": "Little Lane",
        "postcode": "SG19 3AE",
        "latitude": 52.1868083,
        "longitude": -0.1448451,
        "maps_url": "https://www.google.com/maps?q=52.1868083,-0.1448451",
        "w3w": "16, Little Lane, Great Gransden, Sandy, Cambridgeshire, Cambridgeshire and Peterborough, England, SG19 3AE, United Kingdom"
    },
    {
        "street": "Little Gransden Lane",
        "postcode": "SG19 3BA",
        "latitude": 52.1847785,
        "longitude": -0.1459659,
        "maps_url": "https://www.google.com/maps?q=52.1847785,-0.1459659",
        "w3w": "8, Little Gransden Lane, Great Gransden, Sandy, Cambridgeshire, Cambridgeshire and Peterborough, England, SG19 3BA, United Kingdom"
    },
    {
        "street": "Potton End",
        "postcode": "PE19 6TH",
        "latitude": 52.2159181,
        "longitude": -0.1416334,
        "maps_url": "https://www.google.com/maps?q=52.2159181,-0.1416334",
        "w3w": "Beehive Cottage, Potton End, Eltisley, St Neots, Cambridgeshire, Cambridgeshire and Peterborough, England, PE19 6TH, United Kingdom"
    },
    {
        "street": "Fox Lane",
        "postcode": "N13 4AL",
        "latitude": 51.6227796,
        "longitude": -0.1102329,
        "maps_url": "https://www.google.com/maps?q=51.6227796,-0.1102329",
        "w3w": "Fox Lane, Palmers Green, London Borough of Enfield, London, Greater London, England, N13 4AL, United Kingdom"
    },
    {
        "street": "Audley Close",
        "postcode": "SG19 3RL",
        "latitude": 52.1872728,
        "longitude": -0.1402791,
        "maps_url": "https://www.google.com/maps?q=52.1872728,-0.1402791",
        "w3w": "49, Audley Close, Great Gransden, Sandy, Cambridgeshire, Cambridgeshire and Peterborough, England, SG19 3RL, United Kingdom"
    },
    {
        "street": "Fox Street",
        "postcode": "SG19 3AA",
        "latitude": 52.1877741,
        "longitude": -0.1440756,
        "maps_url": "https://www.google.com/maps?q=52.1877741,-0.1440756",
        "w3w": "Sandbourne, 2, Fox Street, Great Gransden, Sandy, Cambridgeshire, Cambridgeshire and Peterborough, England, SG19 3AA, United Kingdom"
    },
    {
        "street": "Hertingfordbury Road",
        "postcode": "SG14 2LB",
        "latitude": 51.7920832,
        "longitude": -0.1061765,
        "maps_url": "https://www.google.com/maps?q=51.7920832,-0.1061765",
        "w3w": "The Bakery, 249, Hertingfordbury Road, Sele Farm, Hertford, Hertingfordbury, East Hertfordshire, Hertfordshire, England, SG14 2LB, United Kingdom"
    },
    {
        "street": "Queens Avenue",
        "postcode": "N10 3PE",
        "latitude": 51.5916129,
        "longitude": -0.1468084,
        "maps_url": "https://www.google.com/maps?q=51.5916129,-0.1468084",
        "w3w": "41, Queens Avenue, Fortis Green, Muswell Hill, London Borough of Haringey, London, Greater London, England, N10 3PE, United Kingdom"
    },
    {
        "street": "Fox Street",
        "postcode": "SG19 3AA",
        "latitude": 52.1870684,
        "longitude": -0.1424048,
        "maps_url": "https://www.google.com/maps?q=52.1870684,-0.1424048",
        "w3w": "Orchard House, Fox Street, Great Gransden, Sandy, Cambridgeshire, Cambridgeshire and Peterborough, England, SG19 3AA, United Kingdom"
    },
    {
        "street": "Dutton Gardens",
        "postcode": "SG19 3EF",
        "latitude": 52.1869449,
        "longitude": -0.1381707,
        "maps_url": "https://www.google.com/maps?q=52.1869449,-0.1381707",
        "w3w": "7, Dutton Gardens, Great Gransden, Huntingdonshire, Cambridgeshire, Cambridgeshire and Peterborough, England, SG19 3EF, United Kingdom"
    },
    {
        "street": "Caxton End",
        "postcode": "PE19 6TJ",
        "latitude": 52.2165086,
        "longitude": -0.1330101,
        "maps_url": "https://www.google.com/maps?q=52.2165086,-0.1330101",
        "w3w": "134, Caxton End, Jesus College Farm, Eltisley, St Neots, Cambridgeshire, Cambridgeshire and Peterborough, England, PE19 6TJ, United Kingdom"
    },
    {
        "street": "Cambridge Road",
        "postcode": "PE19 6TR",
        "latitude": 52.2225772,
        "longitude": -0.1374866,
        "maps_url": "https://www.google.com/maps?q=52.2225772,-0.1374866",
        "w3w": "Lion House, Cambridge Road, Eltisley, St Neots, Cambridgeshire, Cambridgeshire and Peterborough, England, PE19 6TR, United Kingdom"
    },
    {
        "street": "Edwards Mews",
        "postcode": "N1 1SG",
        "latitude": 51.5435186,
        "longitude": -0.1045591,
        "maps_url": "https://www.google.com/maps?q=51.5435186,-0.1045591",
        "w3w": "24, Edwards Mews, Canonbury, Highbury, London Borough of Islington, London, Greater London, England, N1 1SG, United Kingdom"
    },
    {
        "street": "Morton Way",
        "postcode": "N14 7AL",
        "latitude": 51.6213817,
        "longitude": -0.1341752,
        "maps_url": "https://www.google.com/maps?q=51.6213817,-0.1341752",
        "w3w": "150, Morton Way, New Southgate, London Borough of Enfield, London, Greater London, England, N14 7AL, United Kingdom"
    },
    {
        "street": "The Green",
        "postcode": "PE19 6TG",
        "latitude": 52.2209425,
        "longitude": -0.1382561,
        "maps_url": "https://www.google.com/maps?q=52.2209425,-0.1382561",
        "w3w": "Pond Farmhouse, 23, The Green, Eltisley, St Neots, Cambridgeshire, Cambridgeshire and Peterborough, England, PE19 6TG, United Kingdom"
    },
    {
        "street": "Manor Lane",
        "postcode": "SG19 3RA",
        "latitude": 52.1870112,
        "longitude": -0.1481043,
        "maps_url": "https://www.google.com/maps?q=52.1870112,-0.1481043",
        "w3w": "Riddy View, 5, Manor Lane, Great Gransden, Sandy, Cambridgeshire, Cambridgeshire and Peterborough, England, SG19 3RA, United Kingdom"
    },
    {
        "street": "Crown Lane",
        "postcode": "N14 5EN",
        "latitude": 51.6319251,
        "longitude": -0.128414,
        "maps_url": "https://www.google.com/maps?q=51.6319251,-0.128414",
        "w3w": "Crown Premier Dry Cleaners, 98a, Crown Lane, Southgate, London Borough of Enfield, London, Greater London, England, N14 5EN, United Kingdom"
    },
    {
        "street": "Windmill Close",
        "postcode": "SG19 3QD",
        "latitude": 52.1822065,
        "longitude": -0.1348855,
        "maps_url": "https://www.google.com/maps?q=52.1822065,-0.1348855",
        "w3w": "3, Windmill Close, Little Gransden, South Cambridgeshire, Cambridgeshire, Cambridgeshire and Peterborough, England, SG19 3QD, United Kingdom"
    },
    {
        "street": "St Mary's Lane",
        "postcode": "SG14 2LD",
        "latitude": 51.7911632,
        "longitude": -0.1052229,
        "maps_url": "https://www.google.com/maps?q=51.7911632,-0.1052229",
        "w3w": "15, St Mary's Lane, Sele Farm, Hertford, Hertingfordbury, East Hertfordshire, Hertfordshire, England, SG14 2LD, United Kingdom"
    },
    {
        "street": "Manor Lane",
        "postcode": "SG19 3RA",
        "latitude": 52.1866232,
        "longitude": -0.1466412,
        "maps_url": "https://www.google.com/maps?q=52.1866232,-0.1466412",
        "w3w": "2, Manor Lane, Great Gransden, Sandy, Cambridgeshire, Cambridgeshire and Peterborough, England, SG19 3RA, United Kingdom"
    },
    {
        "street": "St Neots Road",
        "postcode": "PE19 6TE",
        "latitude": 52.221637,
        "longitude": -0.1449638,
        "maps_url": "https://www.google.com/maps?q=52.221637,-0.1449638",
        "w3w": "28, St Neots Road, Eltisley, St Neots, Cambridgeshire, Cambridgeshire and Peterborough, England, PE19 6TE, United Kingdom"
    },
    {
        "street": "Primrose Walk",
        "postcode": "SG19 3DR",
        "latitude": 52.1825481,
        "longitude": -0.138918,
        "maps_url": "https://www.google.com/maps?q=52.1825481,-0.138918",
        "w3w": "18, Primrose Walk, Little Gransden, South Cambridgeshire, Cambridgeshire, Cambridgeshire and Peterborough, England, SG19 3DR, United Kingdom"
    },